CODI MESURAMENT,CODI EOI,PROVINCIA,CODI MUNICIPI,CODI ESTACIÓ,NOM ESTACIÓ,MUNICIPI,LATITUD,LONGITUD,ALTITUD,TIPUS ESTACIÓ,ÀREA URBANA,MAGNITUD,CONTAMINANT,UNITATS,PUNT MOSTREIG,ANY,MES,DIA,DATA,H01,V01,H02,V02,H03,V03,H04,V04,H05,V05,H06,V06,H07,V07,H08,V08,H09,V09,H10,V10,H11,V11,H12,V12,H13,V13,H14,V14,H15,V15,H16,V16,H17,V17,H18,V18,H19,V19,H20,V20,H21,V21,H22,V22,H23,V23,H24,V24,Georeferència
08114006_8_20200101,8114006,8,114,6,Martorell,Martorell,41.475384,1.9212021,78,background,suburban,8,NO2,µg/m3,08114006_8_8,2020,1,1,01/01/2020,15.5,V,14.9,V,14.1,V,13.9,V,13.2,V,13.7,V,14.7,V,15.4,V,14.7,V,12,V,11.2,V,14.4,V,14.6,V,14.4,V,16.4,V,21.7,V,29.7,V,46,V,39.4,V,35.2,V,36.6,V,33.4,V,29.3,V,25.2,V,"(41.475384, 1.9212021)"
08022006_10_20200101,8022006,8,22,6,Berga,Berga,42.0979,1.8482014,661,background,suburban,10,PM10,µg/m3,08022006_10_47,2020,1,1,01/01/2020,17,V,20,V,13,V,11,V,8,V,5,V,7,V,7,V,10,V,15,V,11,V,12,V,14,V,11,V,10,V,12,V,14,V,18,V,26,V,27,V,20,V,16,V,16,V,10,V,"(42.0979, 1.8482014)"
08169009_14_20200101,8169009,8,169,9,El Prat de Llobregat (Sagnier),"Prat de Llobregat, el",41.321774,2.0821,7,background,suburban,14,O3,µg/m3,08169009_14_6,2020,1,1,01/01/2020,26,V,14,V,16,V,22,V,20,V,17,V,19,V,21,V,13,V,18,V,23,V,30,V,33,V,31,V,41,V,53,V,54,V,50,V,31,V,4,V,2,V,2,V,2,V,2,V,"(41.321774, 2.0821)"
17125001_14_20200101,17125001,17,125,1,Pardines,Pardines,42.31196,2.2130551,1226,background,rural,14,O3,µg/m3,17125001_14_6,2020,1,1,01/01/2020,59,V,59,V,63,V,63,V,65,V,65,V,66,V,66,V,67,V,64,V,62,V,62,V,75,V,76,V,69,V,69,V,70,V,61,V,54,V,53,V,53,V,55,V,59,V,65,V,"(42.31196, 2.2130551)"
08114006_10_20200101,8114006,8,114,6,Martorell,Martorell,41.475384,1.9212021,78,background,suburban,10,PM10,µg/m3,08114006_10_47,2020,1,1,01/01/2020,11,V,9,V,7,V,7,V,8,V,7,V,8,V,9,V,9,V,16,V,12,V,6,V,9,V,11,V,10,V,15,V,19,V,20,V,19,V,14,V,16,V,14,V,12,V,13,V,"(41.475384, 1.9212021)"
08015021_14_20200101,8015021,8,15,21,Badalona,Badalona,41.443985,2.2378986,7,background,urban,14,O3,µg/m3,08015021_14_6,2020,1,1,01/01/2020,24,V,20,V,21,V,19,V,19,V,16,V,15,V,11,V,8,V,12,V,17,V,18,V,22,V,26,V,32,V,42,V,38,V,33,V,6,V,3,V,6,V,2,V,2,V,3,V,"(41.443985, 2.2378986)"
43013002_8_20200101,43013002,43,13,2,L'Ametlla de Mar,"Ametlla de Mar, l'",40.90248,0.8097212,34,background,rural,8,NO2,µg/m3,43013002_8_8,2020,1,1,01/01/2020,2,V,2,V,2,V,2,V,2,V,2,V,2,V,2,V,2,V,2,V,2,V,2,V,2,V,2,V,1,V,2,V,1,V,2,V,2,V,2,V,2,V,2,V,2,V,2,V,"(40.90248, 0.8097212)"
17184001_14_20200101,17184001,17,184,1,Santa Pau,Santa Pau,42.14328,2.5102024,496,background,rural,14,O3,µg/m3,17184001_14_6,2020,1,1,01/01/2020,7,V,9,V,9,V,8,V,11,V,11,V,9,V,9,V,9,V,6,V,10,V,14,V,13,V,25,V,29,V,33,V,43,V,34,V,24,V,15,V,11,V,8,V,6,V,7,V,"(42.14328, 2.5102024)"
08022006_14_20200101,8022006,8,22,6,Berga,Berga,42.0979,1.8482014,661,background,suburban,14,O3,µg/m3,08022006_14_6,2020,1,1,01/01/2020,8,V,6,V,5,V,3,V,7,V,8,V,4,V,6,V,14,V,5,V,12,V,16,V,22,V,21,V,28,V,30,V,29,V,10,V,3,V,3,V,5,V,6,V,8,V,16,V,"(42.0979, 1.8482014)"
08205002_14_20200101,8205002,8,205,2,Sant Cugat del Vallès,Sant Cugat del Vallès,41.476814,2.0889983,113,background,urban,14,O3,µg/m3,08205002_14_6,2020,1,1,01/01/2020,15,V,14,V,12,V,11,V,7,V,3,V,1,V,1,V,1,V,2,V,9,V,16,V,25,V,27,V,29,V,32,V,27,V,17,V,3,V,1,V,1,V,1,V,3,V,3,V,"(41.476814, 2.0889983)"
08113007_8_20200101,8113007,8,113,7,Manresa,Manresa,41.730293,1.8253003,238,traffic,urban,8,NO2,µg/m3,08113007_8_8,2020,1,1,01/01/2020,13,V,14,V,11,V,9,V,8,V,7,V,8,V,8,V,6,V,8,V,8,V,7,V,7,V,10,V,15,V,18,V,18,V,25,V,31,V,29,V,30,V,26,V,21,V,17,V,"(41.730293, 1.8253003)"
17184001_8_20200101,17184001,17,184,1,Santa Pau,Santa Pau,42.14328,2.5102024,496,background,rural,8,NO2,µg/m3,17184001_8_8,2020,1,1,01/01/2020,2,V,2,V,2,V,2,V,1,V,2,V,2,V,2,V,2,V,2,V,1,V,1,V,1,V,1,V,1,V,1,V,1,V,1,V,1,V,1,V,1,V,2,V,2,V,1,V,"(42.14328, 2.5102024)"
08187012_10_20200101,8187012,8,187,12,Sabadell,Sabadell,41.561214,2.1011107,210,traffic,urban,10,PM10,µg/m3,08187012_10_47,2020,1,1,01/01/2020,24,V,25,V,18,V,23,V,19,V,18,V,13,V,13,V,12,V,16,V,25,V,27,V,23,V,25,V,25,V,25,V,29,V,31,V,39,V,37,V,36,V,30,V,30,V,30,V,"(41.561214, 2.1011107)"
43005002_8_20200101,43005002,43,5,2,Alcover,Alcover,41.278687,1.1798977,238,industrial,rural,8,NO2,µg/m3,43005002_8_8,2020,1,1,01/01/2020,5,V,4,V,4,V,5,V,5,V,4,V,4,V,4,V,4,V,3,V,3,V,3,V,3,V,3,V,3,V,4,V,4,V,5,V,6,V,6,V,7,V,6,V,4,V,4,V,"(41.278687, 1.1798977)"
43162001_8_20200101,43162001,43,162,1,Vandellòs (Els Dedalts),Vandellòs i l'Hospitalet de l',41.00808,0.83110964,737,background,rural,8,NO2,µg/m3,43162001_8_8,2020,1,1,01/01/2020,3,V,4,V,4,V,4,V,,N,,N,,N,,N,,N,,N,,N,,N,3,V,3,V,4,V,3,V,4,V,3,V,3,V,3,V,3,V,2,V,5,V,5,V,"(41.00808, 0.83110964)"
08022006_8_20200101,8022006,8,22,6,Berga,Berga,42.0979,1.8482014,661,background,suburban,8,NO2,µg/m3,08022006_8_8,2020,1,1,01/01/2020,22,V,22,V,20,V,21,V,14,V,11,V,17,V,12,V,23,V,18,V,18,V,14,V,11,V,7,V,8,V,10,V,19,V,34,V,46,V,48,V,34,V,33,V,28,V,20,V,"(42.0979, 1.8482014)"
08298008_10_20200101,8298008,8,298,8,Vic,Vic,41.93501,2.2400014,498,background,suburban,10,PM10,µg/m3,08298008_10_47,2020,1,1,01/01/2020,17,V,17,V,13,V,10,V,10,V,9,V,10,V,9,V,10,V,9,V,11,V,13,V,18,V,18,V,18,V,18,V,17,V,23,V,24,V,16,V,21,V,19,V,22,V,18,V,"(41.93501, 2.2400014)"
08113007_14_20200101,8113007,8,113,7,Manresa,Manresa,41.730293,1.8253003,238,traffic,urban,14,O3,µg/m3,08113007_14_6,2020,1,1,01/01/2020,26,V,24,V,25,V,25,V,26,V,24,V,22,V,22,V,24,V,23,V,21,V,21,V,23,V,23,V,24,V,25,V,25,V,15,V,7,V,6,V,5,V,4,V,4,V,4,V,"(41.730293, 1.8253003)"
08019043_10_20200101,8019043,8,19,43,Barcelona (Eixample),Barcelona,41.385315,2.1537998,26,traffic,urban,10,PM10,µg/m3,08019043_10_47,2020,1,1,01/01/2020,13,V,26,V,14,V,14,V,14,V,15,V,13,V,23,V,20,V,18,V,19,V,17,V,15,V,15,V,18,V,18,V,18,V,18,V,18,V,20,V,18,V,15,V,17,V,23,V,"(41.385315, 2.1537998)"
08245012_8_20200101,8245012,8,245,12,Santa Coloma de Gramenet,Santa Coloma de Gramenet,41.447422,2.209497,23,background,urban,8,NO2,µg/m3,08245012_8_8,2020,1,1,01/01/2020,16,V,23,V,19,V,18,V,19,V,20,V,22,V,25,V,28,V,23,V,18,V,15,V,18,V,19,V,21,V,23,V,23,V,31,V,53,V,61,V,56,V,53,V,50,V,36,V,"(41.447422, 2.209497)"
43005002_14_20200101,43005002,43,5,2,Alcover,Alcover,41.278687,1.1798977,238,industrial,rural,14,O3,µg/m3,43005002_14_6,2020,1,1,01/01/2020,34,V,35,V,36,V,35,V,34,V,37,V,36,V,36,V,34,V,36,V,38,V,40,V,41,V,41,V,38,V,36,V,35,V,32,V,26,V,26,V,24,V,23,V,21,V,25,V,"(41.278687, 1.1798977)"
25051001_10_20200101,25051001,25,51,1,Bellver de Cerdanya,Bellver de Cerdanya,42.368282,1.7767994,1060,background,rural,10,PM10,µg/m3,25051001_10_47,2020,1,1,01/01/2020,44,V,35,V,39,V,35,V,31,V,28,V,42,V,65,V,123,V,79,V,39,V,21,V,6,V,2,V,3,V,8,V,14,V,14,V,25,V,44,V,49,V,42,V,46,V,38,V,"(42.368282, 1.7767994)"
08058003_8_20200101,8058003,8,58,3,Castellet i la Gornal,Castellet i la Gornal,41.244884,1.6177006,213,background,rural,8,NO2,µg/m3,08058003_8_8,2020,1,1,01/01/2020,7,V,10,V,8,V,7,V,6,V,6,V,6,V,5,V,5,V,4,V,4,V,4,V,5,V,8,V,6,V,5,V,7,V,6,V,8,V,8,V,9,V,18,V,19,V,27,V,"(41.244884, 1.6177006)"
08169008_8_20200101,8169008,8,169,8,El Prat de Llobregat (Jardins de la Pau),"Prat de Llobregat, el",41.321487,2.0977015,5,background,suburban,8,NO2,µg/m3,08169008_8_8,2020,1,1,01/01/2020,11,V,17,V,19,V,15,V,13,V,15,V,9,V,9,V,12,V,10,V,8,V,7,V,10,V,17,V,19,V,14,V,7,V,16,V,28,V,50,V,51,V,42,V,35,V,30,V,"(41.321487, 2.0977015)"
08113007_10_20200101,8113007,8,113,7,Manresa,Manresa,41.730293,1.8253003,238,traffic,urban,10,PM10,µg/m3,08113007_10_47,2020,1,1,01/01/2020,10,V,8,V,6,V,6,V,5,V,5,V,5,V,5,V,6,V,6,V,7,V,7,V,6,V,10,V,12,V,14,V,13,V,14,V,17,V,15,V,17,V,15,V,17,V,13,V,"(41.730293, 1.8253003)"
43171001_8_20200101,43171001,43,171,1,Vila-seca,Vila-seca,41.111958,1.1519431,41,background,suburban,8,NO2,µg/m3,43171001_8_8,2020,1,1,01/01/2020,17,V,23,V,19,V,20,V,22,V,19,V,18,V,19,V,19,V,17,V,28,V,11,V,5,V,5,V,6,V,5,V,10,V,22,V,36,V,32,V,27,V,26,V,29,V,24,V,"(41.111958, 1.1519431)"
08263007_8_20200101,8263007,8,263,7,Sant Vicenç dels Horts,Sant Vicenç dels Horts,41.400845,1.9997202,65,industrial,suburban,8,NO2,µg/m3,08263007_8_8,2020,1,1,01/01/2020,18,V,22,V,20,V,15,V,13,V,13,V,14,V,17,V,20,V,16,V,16,V,13,V,11,V,14,V,15,V,22,V,23,V,27,V,27,V,29,V,35,V,35,V,36,V,32,V,"(41.400845, 1.9997202)"
43004005_8_20200101,43004005,43,4,5,Alcanar,Alcanar,40.552807,0.53000027,7,industrial,rural,8,NO2,µg/m3,43004005_8_8,2020,1,1,01/01/2020,6,V,6,V,6,V,5,V,7,V,6,V,4,V,5,V,4,V,4,V,4,V,5,V,5,V,8,V,7,V,6,V,5,V,5,V,9,V,8,V,8,V,9,V,5,V,6,V,"(40.552807, 0.53000027)"
25051001_14_20200101,25051001,25,51,1,Bellver de Cerdanya,Bellver de Cerdanya,42.368282,1.7767994,1060,background,rural,14,O3,µg/m3,25051001_14_6,2020,1,1,01/01/2020,2,V,2,V,2,V,2,V,2,V,2,V,2,V,1,V,2,V,3,V,15,V,34,V,49,V,58,V,62,V,55,V,41,V,27,V,12,V,11,V,7,V,8,V,6,V,4,V,"(42.368282, 1.7767994)"
08074005_10_20200101,8074005,8,74,5,Cubelles (Poliesportiu),Cubelles,41.202198,1.6722002,5,industrial,suburban,10,PM10,µg/m3,08074005_10_47,2020,1,1,01/01/2020,,N,,N,,N,,N,,N,,N,,N,,N,,N,,N,,N,,N,,N,,N,,N,,N,,N,,N,,N,,N,,N,,N,,N,,N,"(41.202198, 1.6722002)"
08205002_8_20200101,8205002,8,205,2,Sant Cugat del Vallès,Sant Cugat del Vallès,41.476814,2.0889983,113,background,urban,8,NO2,µg/m3,08205002_8_8,2020,1,1,01/01/2020,21,V,23,V,24,V,23,V,25,V,25,V,22,V,20,V,14,V,13,V,15,V,18,V,12,V,10,V,12,V,12,V,26,V,34,V,34,V,27,V,28,V,29,V,34,V,33,V,"(41.476814, 2.0889983)"
08112003_8_20200101,8112003,8,112,3,Manlleu,Manlleu,42.003307,2.2872992,460,background,suburban,8,NO2,µg/m3,08112003_8_8,2020,1,1,01/01/2020,17,V,16,V,15,V,14,V,13,V,14,V,14,V,14,V,13,V,14,V,16,V,16,V,16,V,15,V,17,V,22,V,31,V,43,V,44,V,42,V,40,V,29,V,26,V,23,V,"(42.003307, 2.2872992)"
25051001_8_20200101,25051001,25,51,1,Bellver de Cerdanya,Bellver de Cerdanya,42.368282,1.7767994,1060,background,rural,8,NO2,µg/m3,25051001_8_8,2020,1,1,01/01/2020,25,V,25,V,26,V,27,V,24,V,23,V,25,V,23,V,20,V,16,V,17,V,16,V,8,V,5,V,5,V,8,V,13,V,17,V,35,V,41,V,35,V,40,V,34,V,28,V,"(42.368282, 1.7767994)"
08279011_10_20200101,8279011,8,279,11,Terrassa,Terrassa,41.556114,2.0073977,109,traffic,urban,10,PM10,µg/m3,08279011_10_47,2020,1,1,01/01/2020,13,V,13,V,12,V,12,V,10,V,10,V,10,V,10,V,11,V,13,V,12,V,11,V,11,V,13,V,19,V,20,V,20,V,26,V,31,V,39,V,43,V,34,V,33,V,22,V,"(41.556114, 2.0073977)"
25209001_14_20200101,25209001,25,209,1,Sort,Sort,42.405407,1.1299014,692,background,rural,14,O3,µg/m3,25209001_14_6,2020,1,1,01/01/2020,4,V,3,V,1,V,1,V,1,V,1,V,1,V,1,V,2,V,4,V,11,V,18,V,31,V,42,V,48,V,29,V,16,V,2,V,1,V,1,V,2,V,2,V,2,V,2,V,"(42.405407, 1.1299014)"
43162002_8_20200101,43162002,43,162,2,Vandellòs (Viver),Vandellòs i l'Hospitalet de l',41.009453,0.91277903,60,industrial,rural,8,NO2,µg/m3,43162002_8_8,2020,1,1,01/01/2020,3,V,3,V,3,V,3,V,3,V,3,V,3,V,3,V,3,V,3,V,3,V,3,V,3,V,3,V,3,V,3,V,4,V,5,V,6,V,5,V,5,V,4,V,4,V,5,V,"(41.009453, 0.91277903)"
08074005_8_20200101,8074005,8,74,5,Cubelles (Poliesportiu),Cubelles,41.202198,1.6722002,5,industrial,suburban,8,NO2,µg/m3,08074005_8_8,2020,1,1,01/01/2020,11,V,13,V,11,V,10,V,9,V,8,V,8,V,8,V,7,V,7,V,10,V,9,V,6,V,5,V,5,V,5,V,6,V,11,V,26,V,24,V,19,V,18,V,16,V,23,V,"(41.202198, 1.6722002)"
08298008_14_20200101,8298008,8,298,8,Vic,Vic,41.93501,2.2400014,498,background,suburban,14,O3,µg/m3,08298008_14_6,2020,1,1,01/01/2020,25,V,23,V,22,V,22,V,22,V,22,V,21,V,21,V,18,V,19,V,19,V,19,V,21,V,24,V,28,V,25,V,20,V,7,V,1,V,2,V,2,V,2,V,1,V,7,V,"(41.93501, 2.2400014)"
08112003_14_20200101,8112003,8,112,3,Manlleu,Manlleu,42.003307,2.2872992,460,background,suburban,14,O3,µg/m3,08112003_14_6,2020,1,1,01/01/2020,16,V,14,V,14,V,14,V,15,V,13,V,12,V,10,V,10,V,11,V,12,V,13,V,17,V,21,V,28,V,25,V,14,V,5,V,5,V,4,V,4,V,2,V,2,V,2,V,"(42.003307, 2.2872992)"
08301004_14_20200101,8301004,8,301,4,Viladecans - Atrium,Viladecans,41.31335,2.0136087,14,background,suburban,14,O3,µg/m3,08301004_14_6,2020,1,1,01/01/2020,22,V,11,V,26,V,22,V,20,V,21,V,22,V,20,V,18,V,22,V,36,V,37,V,45,V,44,V,54,V,62,V,58,V,46,V,18,V,15,V,16,V,12,V,20,V,19,V,"(41.31335, 2.0136087)"
08221004_10_20200101,8221004,8,221,4,Sant Just Desvern (CEIP Montseny),Sant Just Desvern,41.381874,2.0662978,85,industrial,suburban,10,PM10,µg/m3,08221004_10_47,2020,1,1,01/01/2020,,N,,N,,N,,N,,N,,N,,N,,N,,N,,N,,N,,N,,N,,N,,N,,N,,N,,N,,N,,N,,N,,N,,N,,N,"(41.381874, 2.0662978)"
25209001_10_20200101,25209001,25,209,1,Sort,Sort,42.405407,1.1299014,692,background,rural,10,PM10,µg/m3,25209001_10_47,2020,1,1,01/01/2020,7,V,6,V,9,V,9,V,9,V,10,V,10,V,9,V,8,V,9,V,10,V,7,V,5,V,3,V,5,V,11,V,12,V,15,V,15,V,14,V,12,V,11,V,10,V,10,V,"(42.405407, 1.1299014)"
25119002_10_20200101,25119002,25,119,2,Juneda (Pla del Molí),Juneda,41.544083,0.8299007,255,background,rural,10,PM10,µg/m3,25119002_10_47,2020,1,1,01/01/2020,7,V,8,V,7,V,7,V,6,V,8,V,7,V,7,V,7,V,9,V,8,V,7,V,5,V,6,V,3,V,5,V,6,V,7,V,8,V,10,V,9,V,10,V,11,V,12,V,"(41.544083, 0.8299007)"
08089005_14_20200101,8089005,8,89,5,Gavà,Gavà,41.303097,1.9914981,25,background,suburban,14,O3,µg/m3,08089005_14_6,2020,1,1,01/01/2020,17,V,11,V,13,V,12,V,11,V,11,V,12,V,12,V,12,V,18,V,39,V,41,V,55,V,55,V,60,V,62,V,60,V,29,V,21,V,17,V,19,V,19,V,18,V,13,V,"(41.303097, 1.9914981)"
08019043_8_20200101,8019043,8,19,43,Barcelona (Eixample),Barcelona,41.385315,2.1537998,26,traffic,urban,8,NO2,µg/m3,08019043_8_8,2020,1,1,01/01/2020,24,V,25,V,23,V,35,V,32,V,34,V,35,V,37,V,37,V,34,V,30,V,24,V,22,V,28,V,32,V,30,V,40,V,48,V,50,V,55,V,53,V,47,V,55,V,54,V,"(41.385315, 2.1537998)"
08112003_10_20200101,8112003,8,112,3,Manlleu,Manlleu,42.003307,2.2872992,460,background,suburban,10,PM10,µg/m3,08112003_10_47,2020,1,1,01/01/2020,15,V,14,V,15,V,13,V,12,V,12,V,12,V,13,V,13,V,14,V,15,V,18,V,22,V,19,V,21,V,27,V,21,V,25,V,59,V,70,V,69,V,49,V,47,V,37,V,"(42.003307, 2.2872992)"
43171001_14_20200101,43171001,43,171,1,Vila-seca,Vila-seca,41.111958,1.1519431,41,background,suburban,14,O3,µg/m3,43171001_14_6,2020,1,1,01/01/2020,8,V,4,V,9,V,2,V,4,V,2,V,2,V,2,V,3,V,8,V,19,V,27,V,31,V,34,V,36,V,35,V,29,V,13,V,3,V,3,V,3,V,4,V,3,V,3,V,"(41.111958, 1.1519431)"
08194008_10_20200101,8194008,8,194,8,Sant Adrià de Besòs,Sant Adrià de Besòs,41.425594,2.2221997,7,industrial,urban,10,PM10,µg/m3,08194008_10_47,2020,1,1,01/01/2020,12,V,12,V,13,V,13,V,14,V,11,V,12,V,14,V,16,V,18,V,18,V,16,V,15,V,15,V,13,V,13,V,12,V,12,V,13,V,19,V,27,V,30,V,30,V,25,V,"(41.425594, 2.2221997)"
25196001_8_20200101,25196001,25,196,1,Montsec,Sant Esteve de la Sarga,42.05132,0.7295987,1570,background,rural,8,NO2,µg/m3,25196001_8_8,2020,1,1,01/01/2020,1,V,1,V,1,V,1,V,1,V,1,V,1,V,1,V,1,V,1,V,1,V,1,V,1,V,1,V,1,V,1,V,1,V,1,V,1,V,1,V,1,V,1,V,1,V,1,V,"(42.05132, 0.7295987)"
25119002_14_20200101,25119002,25,119,2,Juneda (Pla del Molí),Juneda,41.544083,0.8299007,255,background,rural,14,O3,µg/m3,25119002_14_6,2020,1,1,01/01/2020,21,V,21,V,24,V,25,V,23,V,24,V,22,V,24,V,20,V,24,V,23,V,23,V,25,V,26,V,27,V,24,V,22,V,22,V,21,V,23,V,23,V,20,V,21,V,22,V,"(41.544083, 0.8299007)"
08089005_8_20200101,8089005,8,89,5,Gavà,Gavà,41.303097,1.9914981,25,background,suburban,8,NO2,µg/m3,08089005_8_8,2020,1,1,01/01/2020,13,V,14,V,16,V,13,V,12,V,10,V,10,V,10,V,12,V,13,V,9,V,10,V,7,V,7,V,7,V,7,V,8,V,15,V,15,V,19,V,16,V,15,V,12,V,13,V,"(41.303097, 1.9914981)"
08211004_8_20200101,8211004,8,211,4,Sant Feliu de Ll. (CEIP Marti i Pol),Sant Feliu de Llobregat,41.386574,2.0573997,81,industrial,suburban,8,NO2,µg/m3,08211004_8_8,2020,1,1,01/01/2020,,N,,N,,N,,N,,N,,N,,N,,N,,N,,N,,N,,N,,N,,N,,N,,N,,N,,N,,N,,N,,N,,N,,N,,N,"(41.386574, 2.0573997)"
08102005_8_20200101,8102005,8,102,5,Igualada,Igualada,41.5784,1.6230061,311,industrial,suburban,8,NO2,µg/m3,08102005_8_8,2020,1,1,01/01/2020,7,V,8,V,6,V,6,V,4,V,5,V,5,V,6,V,7,V,6,V,4,V,5,V,5,V,4,V,5,V,5,V,6,V,9,V,16,V,14,V,17,V,15,V,16,V,10,V,"(41.5784, 1.6230061)"
25119002_8_20200101,25119002,25,119,2,Juneda (Pla del Molí),Juneda,41.544083,0.8299007,255,background,rural,8,NO2,µg/m3,25119002_8_8,2020,1,1,01/01/2020,4,V,5,V,4,V,4,V,3,V,3,V,3,V,3,V,2,V,3,V,4,V,3,V,3,V,3,V,2,V,2,V,3,V,4,V,7,V,8,V,7,V,6,V,8,V,10,V,"(41.544083, 0.8299007)"
08260010_8_20200101,8260010,8,260,10,Santa Perpètua de Mogoda,Santa Perpètua de Mogoda,41.526722,2.1838,84,background,suburban,8,NO2,µg/m3,08260010_8_8,2020,1,1,01/01/2020,30,V,30,V,29,V,25,V,23,V,20,V,19,V,20,V,16,V,18,V,23,V,18,V,16,V,15,V,14,V,15,V,16,V,21,V,43,V,44,V,44,V,30,V,31,V,31,V,"(41.526722, 2.1838)"
25196001_14_20200101,25196001,25,196,1,Montsec,Sant Esteve de la Sarga,42.05132,0.7295987,1570,background,rural,14,O3,µg/m3,25196001_14_6,2020,1,1,01/01/2020,89,V,88,V,91,V,88,V,89,V,88,V,87,V,86,V,84,V,82,V,76,V,74,V,77,V,77,V,74,V,74,V,74,V,77,V,82,V,87,V,87,V,87,V,87,V,87,V,"(42.05132, 0.7295987)"
08102005_14_20200101,8102005,8,102,5,Igualada,Igualada,41.5784,1.6230061,311,industrial,suburban,14,O3,µg/m3,08102005_14_6,2020,1,1,01/01/2020,32,V,31,V,29,V,29,V,30,V,26,V,26,V,25,V,27,V,28,V,29,V,30,V,30,V,33,V,34,V,33,V,31,V,26,V,18,V,17,V,13,V,11,V,7,V,10,V,"(41.5784, 1.6230061)"
08096014_10_20200101,8096014,8,96,14,Granollers,Granollers,41.598682,2.2870984,133,traffic,urban,10,PM10,µg/m3,08096014_10_47,2020,1,1,01/01/2020,25,V,24,V,18,V,22,V,21,V,25,V,27,V,29,V,29,V,30,V,28,V,23,V,22,V,24,V,19,V,12,V,14,V,14,V,19,V,31,V,34,V,32,V,33,V,39,V,"(41.598682, 2.2870984)"
43148001_8_20200101,43148001,43,148,1,Tarragona (Sant Salvador),Tarragona,41.15951,1.2396973,77,traffic,suburban,8,NO2,µg/m3,43148001_8_8,2020,1,1,01/01/2020,10,V,9,V,8,V,7,V,6,V,6,V,5,V,5,V,6,V,5,V,4,V,5,V,5,V,5,V,5,V,6,V,8,V,14,V,18,V,17,V,16,V,14,V,14,V,11,V,"(41.15951, 1.2396973)"
25120001_10_20200101,25120001,25,120,1,Lleida,Lleida,41.615818,0.6157005,220,traffic,urban,10,PM10,µg/m3,25120001_10_47,2020,1,1,01/01/2020,8,V,8,V,6,V,6,V,5,V,5,V,6,V,7,V,7,V,7,V,7,V,6,V,5,V,5,V,4,V,4,V,6,V,6,V,8,V,9,V,7,V,9,V,10,V,10,V,"(41.615818, 0.6157005)"
08019044_8_20200101,8019044,8,19,44,Barcelona (Gràcia - Sant Gervasi),Barcelona,41.398724,2.1533988,57,traffic,urban,8,NO2,µg/m3,08019044_8_8,2020,1,1,01/01/2020,39,V,53,V,55,V,49,V,47,V,46,V,39,V,34,V,27,V,22,V,19,V,21,V,26,V,32,V,36,V,29,V,42,V,48,V,51,V,42,V,65,V,61,V,60,V,59,V,"(41.398724, 2.1533988)"
08196001_8_20200101,8196001,8,196,1,Sant Andreu de la Barca,Sant Andreu de la Barca,41.4508,1.9748996,40,traffic,suburban,8,NO2,µg/m3,08196001_8_8,2020,1,1,01/01/2020,11,V,11,V,8,V,7,V,9,V,6,V,12,V,28,V,27,V,18,V,7,V,6,V,8,V,12,V,16,V,19,V,28,V,45,V,55,V,41,V,35,V,35,V,34,V,28,V,"(41.4508, 1.9748996)"
25196001_10_20200101,25196001,25,196,1,Montsec,Sant Esteve de la Sarga,42.05132,0.7295987,1570,background,rural,10,PM10,µg/m3,25196001_10_47,2020,1,1,01/01/2020,1,V,2,V,1,V,1,V,1,V,1,V,1,V,2,V,3,V,2,V,5,V,4,V,2,V,1,V,2,V,3,V,3,V,3,V,3,V,2,V,2,V,2,V,2,V,2,V,"(42.05132, 0.7295987)"
43162005_8_20200101,43162005,43,162,5,Vandellòs (Barranc del Terme),Vandellòs i l'Hospitalet de l',40.93944,0.83139044,96,industrial,rural,8,NO2,µg/m3,43162005_8_8,2020,1,1,01/01/2020,2,V,2,V,2,V,2,V,2,V,2,V,2,V,2,V,2,V,2,V,1,V,1,V,2,V,3,V,3,V,2,V,2,V,2,V,2,V,1,V,3,V,2,V,2,V,2,V,"(40.93944, 0.83139044)"
08096014_14_20200101,8096014,8,96,14,Granollers,Granollers,41.598682,2.2870984,133,traffic,urban,14,O3,µg/m3,08096014_14_6,2020,1,1,01/01/2020,1,V,2,V,1,V,1,V,1,V,1,V,1,V,1,V,1,V,2,V,5,V,11,V,20,V,23,V,43,V,48,V,40,V,27,V,13,V,5,V,4,V,4,V,2,V,2,V,"(41.598682, 2.2870984)"
08157003_8_20200101,8157003,8,157,3,Pallejà (Roca de Vilana),Pallejà,41.41528,1.9905012,82,industrial,suburban,8,NO2,µg/m3,08157003_8_8,2020,1,1,01/01/2020,7,V,16,V,9,V,8,V,6,V,6,V,5,V,10,V,15,V,16,V,13,V,5,V,6,V,8,V,9,V,13,V,21,V,16,V,9,V,18,V,24,V,32,V,25,V,19,V,"(41.41528, 1.9905012)"
08101001_8_20200101,8101001,8,101,1,L'Hospitalet de Llobregat,"Hospitalet de Llobregat, l'",41.370476,2.1149993,29,background,urban,8,NO2,µg/m3,08101001_8_8,2020,1,1,01/01/2020,15,V,20,V,17,V,21,V,15,V,26,V,35,V,32,V,30,V,25,V,17,V,14,V,12,V,14,V,19,V,19,V,24,V,22,V,28,V,52,V,58,V,59,V,65,V,55,V,"(41.370476, 2.1149993)"
43171001_10_20200101,43171001,43,171,1,Vila-seca,Vila-seca,41.111958,1.1519431,41,background,suburban,10,PM10,µg/m3,43171001_10_47,2020,1,1,01/01/2020,23,V,31,V,26,V,37,V,25,V,28,V,27,V,25,V,26,V,23,V,19,V,13,V,13,V,12,V,13,V,12,V,12,V,16,V,22,V,28,V,39,V,41,V,44,V,39,V,"(41.111958, 1.1519431)"
08301004_8_20200101,8301004,8,301,4,Viladecans - Atrium,Viladecans,41.31335,2.0136087,14,background,suburban,8,NO2,µg/m3,08301004_8_8,2020,1,1,01/01/2020,15,V,27,V,18,V,19,V,15,V,13,V,17,V,15,V,15,V,14,V,7,V,9,V,7,V,9,V,8,V,7,V,11,V,20,V,26,V,28,V,27,V,30,V,20,V,17,V,"(41.31335, 2.0136087)"
25172001_14_20200101,25172001,25,172,1,Ponts,Ponts,41.906708,1.1930013,370,background,rural,14,O3,µg/m3,25172001_14_6,2020,1,1,01/01/2020,25,V,25,V,24,V,24,V,24,V,21,V,22,V,23,V,23,V,24,V,23,V,24,V,24,V,25,V,25,V,26,V,25,V,24,V,22,V,21,V,20,V,19,V,17,V,17,V,"(41.906708, 1.1930013)"
25120001_14_20200101,25120001,25,120,1,Lleida,Lleida,41.615818,0.6157005,220,traffic,urban,14,O3,µg/m3,25120001_14_6,2020,1,1,01/01/2020,20,V,16,V,17,V,17,V,18,V,24,V,26,V,25,V,22,V,20,V,19,V,19,V,21,V,23,V,23,V,22,V,22,V,20,V,17,V,17,V,18,V,19,V,19,V,21,V,"(41.615818, 0.6157005)"
08096014_8_20200101,8096014,8,96,14,Granollers,Granollers,41.598682,2.2870984,133,traffic,urban,8,NO2,µg/m3,08096014_8_8,2020,1,1,01/01/2020,37,V,35,V,33,V,31,V,32,V,30,V,31,V,27,V,23,V,21,V,17,V,46,V,37,V,21,V,16,V,13,V,17,V,27,V,46,V,55,V,44,V,37,V,46,V,41,V,"(41.598682, 2.2870984)"
43148022_8_20200101,43148022,43,148,22,Tarragona (Universitat Laboral),Tarragona,41.103706,1.2007992,5,industrial,suburban,8,NO2,µg/m3,43148022_8_8,2020,1,1,01/01/2020,28,V,19,V,31,V,9,V,17,V,8,V,24,V,40,V,26,V,24,V,14,V,23,V,14,V,10,V,5,V,4,V,4,V,20,V,24,V,25,V,24,V,24,V,30,V,20,V,"(41.103706, 1.2007992)"
08101001_10_20200101,8101001,8,101,1,L'Hospitalet de Llobregat,"Hospitalet de Llobregat, l'",41.370476,2.1149993,29,background,urban,10,PM10,µg/m3,08101001_10_47,2020,1,1,01/01/2020,8,V,9,V,9,V,10,V,9,V,9,V,14,V,22,V,15,V,14,V,14,V,15,V,14,V,12,V,15,V,15,V,15,V,15,V,16,V,23,V,21,V,18,V,23,V,21,V,"(41.370476, 2.1149993)"
25120001_8_20200101,25120001,25,120,1,Lleida,Lleida,41.615818,0.6157005,220,traffic,urban,8,NO2,µg/m3,25120001_8_8,2020,1,1,01/01/2020,10,V,13,V,11,V,9,V,8,V,7,V,9,V,7,V,9,V,10,V,10,V,11,V,10,V,11,V,10,V,11,V,10,V,13,V,16,V,15,V,14,V,13,V,12,V,11,V,"(41.615818, 0.6157005)"
08263001_14_20200101,8263001,8,263,1,Sant Vicenç dels Horts (Ribot),Sant Vicenç dels Horts,41.39219,2.0097985,38,background,suburban,14,O3,µg/m3,08263001_14_6,2020,1,1,01/01/2020,11,V,3,V,10,V,13,V,8,V,6,V,6,V,4,V,2,V,6,V,11,V,24,V,27,V,29,V,29,V,20,V,32,V,33,V,14,V,7,V,2,V,1,V,1,V,1,V,"(41.39219, 2.0097985)"
43123005_8_20200101,43123005,43,123,5,Reus,Reus,41.150803,1.1202013,102,traffic,suburban,8,NO2,µg/m3,43123005_8_8,2020,1,1,01/01/2020,22,V,27,V,25,V,28,V,21,V,19,V,20,V,18,V,19,V,20,V,25,V,7,V,5,V,7,V,7,V,7,V,12,V,21,V,33,V,29,V,28,V,32,V,27,V,25,V,"(41.150803, 1.1202013)"
08019050_14_20200101,8019050,8,19,50,Barcelona (Ciutadella),Barcelona,41.386406,2.1873982,7,background,urban,14,O3,µg/m3,08019050_14_6,2020,1,1,01/01/2020,10,V,4,V,2,V,3,V,3,V,1,V,3,V,5,V,3,V,11,V,19,V,24,V,22,V,25,V,30,V,33,V,40,V,41,V,34,V,32,V,9,V,1,V,2,V,2,V,"(41.386406, 2.1873982)"
43148003_8_20200101,43148003,43,148,3,Tarragona (Bonavista),Tarragona,41.11591,1.1919986,39,industrial,suburban,8,NO2,µg/m3,43148003_8_8,2020,1,1,01/01/2020,30,V,21,V,26,V,13,V,20,V,16,V,21,V,23,V,24,V,20,V,16,V,14,V,9,V,10,V,9,V,6,V,9,V,26,V,38,V,32,V,28,V,25,V,19,V,24,V,"(41.11591, 1.1919986)"
08137001_8_20200101,8137001,8,137,1,Montseny (La Castanya),Montseny,41.77928,2.358002,693,background,rural,8,NO2,µg/m3,08137001_8_8,2020,1,1,01/01/2020,1,V,1,V,1,V,1,V,1,V,1,V,1,V,1,V,1,V,1,V,1,V,1,V,2,V,3,V,3,V,5,V,4,V,4,V,3,V,3,V,2,V,2,V,1,V,1,V,"(41.77928, 2.358002)"
43148003_10_20200101,43148003,43,148,3,Tarragona (Bonavista),Tarragona,41.11591,1.1919986,39,industrial,suburban,10,PM10,µg/m3,43148003_10_47,2020,1,1,01/01/2020,30,V,21,V,28,V,14,V,20,V,16,V,21,V,17,V,20,V,17,V,15,V,14,V,11,V,15,V,15,V,11,V,13,V,22,V,25,V,22,V,20,V,23,V,20,V,23,V,"(41.11591, 1.1919986)"
08305006_10_20200101,8305006,8,305,6,Vilafranca del Penedès,Vilafranca del Penedès,41.346813,1.6865987,192,background,suburban,10,PM10,µg/m3,08305006_10_47,2020,1,1,01/01/2020,7,V,8,V,8,V,8,V,8,V,8,V,10,V,7,V,7,V,9,V,8,V,7,V,4,V,8,V,9,V,9,V,12,V,14,V,12,V,13,V,13,V,14,V,11,V,14,V,"(41.346813, 1.6865987)"
08184006_8_20200101,8184006,8,184,6,Rubí,Rubí,41.492115,2.0424972,171,background,suburban,8,NO2,µg/m3,08184006_8_8,2020,1,1,01/01/2020,14,V,17,V,15,V,15,V,14,V,15,V,14,V,17,V,19,V,17,V,13,V,5,V,4,V,4,V,6,V,9,V,17,V,28,V,30,V,45,V,47,V,38,V,25,V,26,V,"(41.492115, 2.0424972)"
43123005_14_20200101,43123005,43,123,5,Reus,Reus,41.150803,1.1202013,102,traffic,suburban,14,O3,µg/m3,43123005_14_6,2020,1,1,01/01/2020,3,V,3,V,1,V,3,V,1,V,1,V,1,V,1,V,3,V,6,V,18,V,29,V,37,V,36,V,35,V,38,V,32,V,13,V,2,V,3,V,2,V,6,V,2,V,1,V,"(41.150803, 1.1202013)"
08019050_8_20200101,8019050,8,19,50,Barcelona (Ciutadella),Barcelona,41.386406,2.1873982,7,background,urban,8,NO2,µg/m3,08019050_8_8,2020,1,1,01/01/2020,32,V,34,V,38,V,35,V,32,V,32,V,28,V,30,V,30,V,24,V,32,V,20,V,27,V,26,V,22,V,22,V,17,V,15,V,15,V,13,V,49,V,55,V,53,V,47,V,"(41.386406, 2.1873982)"
08194008_14_20200101,8194008,8,194,8,Sant Adrià de Besòs,Sant Adrià de Besòs,41.425594,2.2221997,7,industrial,urban,14,O3,µg/m3,08194008_14_6,2020,1,1,01/01/2020,18,V,8,V,11,V,16,V,12,V,7,V,6,V,3,V,3,V,7,V,12,V,16,V,21,V,22,V,29,V,35,V,38,V,31,V,15,V,3,V,2,V,2,V,2,V,2,V,"(41.425594, 2.2221997)"
08137001_14_20200101,8137001,8,137,1,Montseny (La Castanya),Montseny,41.77928,2.358002,693,background,rural,14,O3,µg/m3,08137001_14_6,2020,1,1,01/01/2020,61,V,64,V,65,V,64,V,65,V,64,V,63,V,66,V,65,V,60,V,56,V,57,V,52,V,49,V,47,V,43,V,43,V,42,V,29,V,34,V,43,V,49,V,57,V,60,V,"(41.77928, 2.358002)"
08019042_8_20200101,8019042,8,19,42,Barcelona (Sants),Barcelona,41.37878,2.133099,35,background,urban,8,NO2,µg/m3,08019042_8_8,2020,1,1,01/01/2020,18,V,24,V,23,V,15,V,15,V,17,V,15,V,22,V,31,V,28,V,27,V,18,V,15,V,13,V,16,V,20,V,24,V,23,V,24,V,36,V,44,V,27,V,55,V,50,V,"(41.37878, 2.133099)"
08305006_14_20200101,8305006,8,305,6,Vilafranca del Penedès,Vilafranca del Penedès,41.346813,1.6865987,192,background,suburban,14,O3,µg/m3,08305006_14_6,2020,1,1,01/01/2020,28,V,25,V,25,V,26,V,23,V,23,V,25,V,27,V,26,V,25,V,27,V,33,V,38,V,44,V,46,V,45,V,43,V,39,V,26,V,10,V,4,V,7,V,6,V,7,V,"(41.346813, 1.6865987)"
08260010_10_20200101,8260010,8,260,10,Santa Perpètua de Mogoda,Santa Perpètua de Mogoda,41.526722,2.1838,84,background,suburban,10,PM10,µg/m3,08260010_10_47,2020,1,1,01/01/2020,30,V,26,V,31,V,28,V,25,V,22,V,21,V,19,V,17,V,24,V,18,V,17,V,14,V,15,V,16,V,15,V,14,V,12,V,16,V,23,V,26,V,28,V,31,V,24,V,"(41.526722, 2.1838)"
43123005_10_20200101,43123005,43,123,5,Reus,Reus,41.150803,1.1202013,102,traffic,suburban,10,PM10,µg/m3,43123005_10_47,2020,1,1,01/01/2020,27,V,43,V,39,V,28,V,15,V,14,V,19,V,20,V,20,V,33,V,24,V,1,V,1,V,2,V,9,V,10,V,11,V,10,V,23,V,44,V,47,V,63,V,52,V,39,V,"(41.150803, 1.1202013)"
08019054_10_20200101,8019054,8,19,54,Barcelona (Parc Vall Hebron),Barcelona,41.42611,2.1480017,136,background,urban,10,PM10,µg/m3,08019054_10_47,2020,1,1,01/01/2020,16,V,14,V,14,V,22,V,21,V,13,V,16,V,12,V,14,V,17,V,16,V,15,V,13,V,13,V,15,V,23,V,21,V,19,V,18,V,22,V,26,V,25,V,22,V,23,V,"(41.42611, 2.1480017)"
08202001_10_20200101,8202001,8,202,1,Sant Celoni,Sant Celoni,41.6891,2.495701,145,background,suburban,10,PM10,µg/m3,08202001_10_47,2020,1,1,01/01/2020,23,V,23,V,22,V,19,V,18,V,16,V,17,V,17,V,16,V,18,V,24,V,25,V,24,V,16,V,8,V,9,V,10,V,15,V,31,V,25,V,30,V,26,V,21,V,21,V,"(41.6891, 2.495701)"
08125013_10_20200101,8125013,8,125,13,Montcada i Reixac (Can Sant Joan),Montcada i Reixac,41.469826,2.1758358,29,industrial,suburban,10,PM10,µg/m3,08125013_10_47,2020,1,1,01/01/2020,11,V,11,V,11,V,13,V,26,V,29,V,27,V,25,V,23,V,25,V,27,V,25,V,17,V,17,V,15,V,15,V,12,V,15,V,18,V,18,V,20,V,23,V,24,V,19,V,"(41.469826, 2.1758358)"
08305006_8_20200101,8305006,8,305,6,Vilafranca del Penedès,Vilafranca del Penedès,41.346813,1.6865987,192,background,suburban,8,NO2,µg/m3,08305006_8_8,2020,1,1,01/01/2020,9,V,12,V,12,V,10,V,10,V,10,V,9,V,8,V,7,V,9,V,7,V,5,V,5,V,5,V,6,V,6,V,8,V,15,V,22,V,34,V,28,V,25,V,23,V,21,V,"(41.346813, 1.6865987)"
08125002_8_20200101,8125002,8,125,2,Montcada i Reixac,Montcada i Reixac,41.48197,2.1882975,34,traffic,suburban,8,NO2,µg/m3,08125002_8_8,2020,1,1,01/01/2020,25,V,35,V,31,V,34,V,33,V,29,V,26,V,23,V,20,V,20,V,24,V,25,V,23,V,25,V,19,V,24,V,23,V,32,V,37,V,46,V,37,V,39,V,31,V,31,V,"(41.48197, 2.1882975)"
08263001_8_20200101,8263001,8,263,1,Sant Vicenç dels Horts (Ribot),Sant Vicenç dels Horts,41.39219,2.0097985,38,background,suburban,8,NO2,µg/m3,08263001_8_8,2020,1,1,01/01/2020,23,V,29,V,26,V,20,V,20,V,16,V,16,V,21,V,21,V,19,V,16,V,10,V,12,V,15,V,19,V,24,V,21,V,21,V,29,V,36,V,39,V,37,V,34,V,29,V,"(41.39219, 2.0097985)"
43103001_8_20200101,43103001,43,103,1,Perafort (Puigdelfí),Perafort,41.193604,1.2367008,97,industrial,rural,8,NO2,µg/m3,43103001_8_8,2020,1,1,01/01/2020,6,V,6,V,5,V,6,V,5,V,5,V,5,V,4,V,4,V,4,V,3,V,4,V,4,V,4,V,5,V,5,V,5,V,7,V,13,V,15,V,15,V,13,V,11,V,12,V,"(41.193604, 1.2367008)"
08019054_14_20200101,8019054,8,19,54,Barcelona (Parc Vall Hebron),Barcelona,41.42611,2.1480017,136,background,urban,14,O3,µg/m3,08019054_14_6,2020,1,1,01/01/2020,30,V,30,V,26,V,10,V,6,V,5,V,6,V,14,V,23,V,29,V,35,V,37,V,38,V,42,V,37,V,33,V,32,V,25,V,3,V,1,V,1,V,2,V,1,V,2,V,"(41.42611, 2.1480017)"
08279011_14_20200101,8279011,8,279,11,Terrassa,Terrassa,41.556114,2.0073977,109,traffic,urban,14,O3,µg/m3,08279011_14_6,2020,1,1,01/01/2020,26,V,23,V,24,V,25,V,24,V,21,V,17,V,10,V,15,V,14,V,23,V,23,V,24,V,24,V,28,V,36,V,26,V,9,V,4,V,4,V,5,V,4,V,4,V,3,V,"(41.556114, 2.0073977)"
08307012_14_20200101,8307012,8,307,12,Vilanova i la Geltrú,Vilanova i la Geltrú,41.218987,1.7211995,12,traffic,urban,14,O3,µg/m3,08307012_14_6,2020,1,1,01/01/2020,24,V,23,V,24,V,25,V,25,V,25,V,23,V,23,V,23,V,24,V,27,V,28,V,34,V,35,V,41,V,45,V,45,V,34,V,15,V,8,V,11,V,3,V,4,V,6,V,"(41.218987, 1.7211995)"
08019044_14_20200101,8019044,8,19,44,Barcelona (Gràcia - Sant Gervasi),Barcelona,41.398724,2.1533988,57,traffic,urban,14,O3,µg/m3,08019044_14_6,2020,1,1,01/01/2020,13,V,6,V,5,V,4,V,3,V,3,V,7,V,12,V,17,V,22,V,27,V,30,V,31,V,24,V,22,V,27,V,22,V,18,V,16,V,25,V,8,V,7,V,6,V,2,V,"(41.398724, 2.1533988)"
08125002_14_20200101,8125002,8,125,2,Montcada i Reixac,Montcada i Reixac,41.48197,2.1882975,34,traffic,suburban,14,O3,µg/m3,08125002_14_6,2020,1,1,01/01/2020,12,V,7,V,6,V,3,V,1,V,1,V,1,V,1,V,1,V,2,V,4,V,8,V,15,V,19,V,25,V,30,V,32,V,19,V,13,V,1,V,1,V,1,V,1,V,1,V,"(41.48197, 2.1882975)"
08184006_14_20200101,8184006,8,184,6,Rubí,Rubí,41.492115,2.0424972,171,background,suburban,14,O3,µg/m3,08184006_14_6,2020,1,1,01/01/2020,22,V,20,V,21,V,18,V,16,V,13,V,13,V,7,V,5,V,8,V,15,V,25,V,30,V,34,V,36,V,40,V,35,V,25,V,20,V,9,V,10,V,9,V,6,V,5,V,"(41.492115, 2.0424972)"
43070001_14_20200101,43070001,43,70,1,Els Guiamets,"Guiamets, els",41.100723,0.755101,220,background,rural,14,O3,µg/m3,43070001_14_6,2020,1,1,01/01/2020,31,V,32,V,30,V,28,V,26,V,27,V,28,V,27,V,26,V,27,V,26,V,27,V,27,V,28,V,28,V,28,V,27,V,26,V,25,V,24,V,28,V,24,V,25,V,24,V,"(41.100723, 0.755101)"
08019054_8_20200101,8019054,8,19,54,Barcelona (Parc Vall Hebron),Barcelona,41.42611,2.1480017,136,background,urban,8,NO2,µg/m3,08019054_8_8,2020,1,1,01/01/2020,20,V,22,V,,N,,N,,N,,N,,N,,N,,N,,N,,N,,N,,N,,N,,N,,N,,N,,N,,N,,N,,N,,N,,N,,N,"(41.42611, 2.1480017)"
08187012_14_20200101,8187012,8,187,12,Sabadell,Sabadell,41.561214,2.1011107,210,traffic,urban,14,O3,µg/m3,08187012_14_6,2020,1,1,01/01/2020,12,V,8,V,16,V,8,V,13,V,14,V,10,V,9,V,10,V,9,V,9,V,9,V,20,V,28,V,33,V,34,V,22,V,15,V,10,V,4,V,2,V,3,V,3,V,2,V,"(41.561214, 2.1011107)"
08019004_8_20200101,8019004,8,19,4,Barcelona (Poblenou),Barcelona,41.40388,2.204501,3,background,urban,8,NO2,µg/m3,08019004_8_8,2020,1,1,01/01/2020,27,V,31,V,27,V,15,V,22,V,32,V,32,V,30,V,29,V,26,V,22,V,20,V,20,V,22,V,23,V,22,V,22,V,24,V,32,V,64,V,66,V,63,V,56,V,48,V,"(41.40388, 2.204501)"
08307012_8_20200101,8307012,8,307,12,Vilanova i la Geltrú,Vilanova i la Geltrú,41.218987,1.7211995,12,traffic,urban,8,NO2,µg/m3,08307012_8_8,2020,1,1,01/01/2020,11,V,13,V,12,V,10,V,9,V,8,V,9,V,9,V,8,V,8,V,6,V,7,V,7,V,9,V,7,V,6,V,7,V,18,V,40,V,41,V,36,V,38,V,32,V,25,V,"(41.218987, 1.7211995)"
08259002_14_20200101,8259002,8,259,2,Santa Maria de Palautordera,Santa Maria de Palautordera,41.691273,2.4408977,210,background,rural,14,O3,µg/m3,08259002_14_6,2020,1,1,01/01/2020,3,V,2,V,2,V,2,V,3,V,3,V,4,V,3,V,4,V,6,V,13,V,20,V,37,V,40,V,54,V,55,V,45,V,18,V,12,V,10,V,9,V,9,V,9,V,11,V,"(41.691273, 2.4408977)"
43064001_14_20200101,43064001,43,64,1,Gandesa,Gandesa,41.058212,0.43969983,368,background,rural,14,O3,µg/m3,43064001_14_6,2020,1,1,01/01/2020,32,V,33,V,31,V,30,V,30,V,30,V,29,V,27,V,30,V,28,V,28,V,28,V,26,V,26,V,27,V,28,V,26,V,24,V,25,V,26,V,27,V,25,V,27,V,28,V,"(41.058212, 0.43969983)"
08019057_10_20200101,8019057,8,19,57,Barcelona (Palau Reial),Barcelona,41.38749,2.1151996,81,background,urban,10,PM10,µg/m3,08019057_10_47,2020,1,1,01/01/2020,13,V,10,V,12,V,14,V,11,V,12,V,11,V,12,V,19,V,17,V,17,V,16,V,13,V,12,V,15,V,17,V,17,V,16,V,16,V,18,V,19,V,19,V,18,V,16,V,"(41.38749, 2.1151996)"
08202001_14_20200101,8202001,8,202,1,Sant Celoni,Sant Celoni,41.6891,2.495701,145,background,suburban,14,O3,µg/m3,08202001_14_6,2020,1,1,01/01/2020,1,V,1,V,2,V,1,V,1,V,1,V,1,V,1,V,1,V,2,V,4,V,13,V,24,V,36,V,59,V,58,V,49,V,32,V,2,V,1,V,2,V,2,V,2,V,1,V,"(41.6891, 2.495701)"
08125002_10_20200101,8125002,8,125,2,Montcada i Reixac,Montcada i Reixac,41.48197,2.1882975,34,traffic,suburban,10,PM10,µg/m3,08125002_10_47,2020,1,1,01/01/2020,16,V,15,V,14,V,13,V,24,V,29,V,30,V,29,V,25,V,24,V,26,V,26,V,19,V,17,V,17,V,16,V,12,V,13,V,15,V,21,V,22,V,22,V,24,V,22,V,"(41.48197, 2.1882975)"
17001002_14_20200101,17001002,17,1,2,Agullana,Agullana,42.392002,2.8420997,214,background,rural,14,O3,µg/m3,17001002_14_6,2020,1,1,01/01/2020,32,V,32,V,32,V,33,V,32,V,30,V,28,V,29,V,29,V,26,V,26,V,36,V,48,V,48,V,50,V,47,V,36,V,28,V,22,V,25,V,27,V,30,V,21,V,26,V,"(42.392002, 2.8420997)"
08019043_14_20200101,8019043,8,19,43,Barcelona (Eixample),Barcelona,41.385315,2.1537998,26,traffic,urban,14,O3,µg/m3,08019043_14_6,2020,1,1,01/01/2020,22,V,19,V,19,V,6,V,8,V,5,V,4,V,2,V,2,V,8,V,13,V,25,V,27,V,19,V,22,V,25,V,26,V,18,V,16,V,15,V,13,V,11,V,3,V,1,V,"(41.385315, 2.1537998)"
08270005_8_20200101,8270005,8,270,5,Sitges (Vallcarca),Sitges,41.240814,1.856664,46,industrial,rural,8,NO2,µg/m3,08270005_8_99,2020,1,1,01/01/2020,4,V,6,V,4,V,4,V,3,V,3,V,3,V,2,V,4,V,4,V,3,V,2,V,1,V,2,V,1,V,1,V,1,V,1,V,11,V,12,V,7,V,10,V,10,V,8,V,"(41.240814, 1.856664)"
43047001_8_20200101,43047001,43,47,1,Constantí,Constantí,41.15493,1.2177014,56,industrial,suburban,8,NO2,µg/m3,43047001_8_8,2020,1,1,01/01/2020,10,V,11,V,10,V,8,V,7,V,7,V,7,V,9,V,9,V,10,V,5,V,5,V,6,V,7,V,10,V,12,V,16,V,19,V,15,V,19,V,16,V,14,V,14,V,14,V,"(41.15493, 1.2177014)"
08019057_14_20200101,8019057,8,19,57,Barcelona (Palau Reial),Barcelona,41.38749,2.1151996,81,background,urban,14,O3,µg/m3,08019057_14_6,2020,1,1,01/01/2020,31,V,34,V,20,V,21,V,27,V,22,V,27,V,13,V,4,V,9,V,22,V,28,V,30,V,33,V,39,V,38,V,38,V,41,V,23,V,4,V,5,V,3,V,2,V,2,V,"(41.38749, 2.1151996)"
08279011_8_20200101,8279011,8,279,11,Terrassa,Terrassa,41.556114,2.0073977,109,traffic,urban,8,NO2,µg/m3,08279011_8_8,2020,1,1,01/01/2020,14,V,18,V,15,V,12,V,11,V,12,V,17,V,26,V,16,V,17,V,8,V,7,V,11,V,17,V,25,V,21,V,30,V,54,V,73,V,79,V,55,V,47,V,41,V,31,V,"(41.556114, 2.0073977)"
08124009_8_20200101,8124009,8,124,9,Mollet del Vallès,Mollet del Vallès,41.549183,2.2120984,90,traffic,suburban,8,NO2,µg/m3,08124009_8_8,2020,1,1,01/01/2020,35,V,49,V,40,V,37,V,34,V,29,V,29,V,26,V,29,V,24,V,28,V,31,V,27,V,29,V,28,V,25,V,18,V,32,V,75,V,63,V,55,V,45,V,42,V,35,V,"(41.549183, 2.2120984)"
08019044_10_20200101,8019044,8,19,44,Barcelona (Gràcia - Sant Gervasi),Barcelona,41.398724,2.1533988,57,traffic,urban,10,PM10,µg/m3,08019044_10_47,2020,1,1,01/01/2020,16,V,17,V,17,V,17,V,17,V,14,V,16,V,11,V,15,V,16,V,18,V,17,V,15,V,16,V,18,V,18,V,18,V,17,V,17,V,20,V,25,V,20,V,18,V,21,V,"(41.398724, 2.1533988)"
17013001_10_20200101,17013001,17,13,1,Begur,Begur,41.95867,3.2129009,200,background,rural,10,PM10,µg/m3,17013001_10_47,2020,1,1,01/01/2020,,N,,N,,N,,N,,N,,N,,N,,N,,N,,N,,N,,N,,N,,N,,N,,N,,N,,N,,N,,N,,N,,N,,N,,N,"(41.95867, 3.2129009)"
08184006_10_20200101,8184006,8,184,6,Rubí,Rubí,41.492115,2.0424972,171,background,suburban,10,PM10,µg/m3,08184006_10_47,2020,1,1,01/01/2020,11,V,10,V,10,V,8,V,9,V,7,V,10,V,9,V,12,V,17,V,17,V,8,V,7,V,8,V,9,V,12,V,17,V,16,V,15,V,20,V,25,V,30,V,18,V,13,V,"(41.492115, 2.0424972)"
43047001_14_20200101,43047001,43,47,1,Constantí,Constantí,41.15493,1.2177014,56,industrial,suburban,14,O3,µg/m3,43047001_14_6,2020,1,1,01/01/2020,22,V,26,V,26,V,28,V,25,V,27,V,26,V,20,V,22,V,21,V,32,V,32,V,37,V,41,V,42,V,36,V,25,V,15,V,16,V,10,V,14,V,14,V,13,V,12,V,"(41.15493, 1.2177014)"
43148028_14_20200101,43148028,43,148,28,Tarragona (Parc de la Ciutat),Tarragona,41.1174,1.2417027,13,background,urban,14,O3,µg/m3,43148028_14_6,2020,1,1,01/01/2020,,N,,N,,N,,N,,N,,N,,N,,N,,N,,N,,N,,N,,N,,N,,N,,N,,N,,N,,N,,N,,N,,N,,N,,N,"(41.1174, 1.2417027)"
08019057_8_20200101,8019057,8,19,57,Barcelona (Palau Reial),Barcelona,41.38749,2.1151996,81,background,urban,8,NO2,µg/m3,08019057_8_8,2020,1,1,01/01/2020,16,V,15,V,29,V,23,V,13,V,16,V,14,V,26,V,32,V,35,V,22,V,22,V,15,V,14,V,19,V,21,V,27,V,26,V,41,V,57,V,58,V,59,V,53,V,46,V,"(41.38749, 2.1151996)"
08187012_8_20200101,8187012,8,187,12,Sabadell,Sabadell,41.561214,2.1011107,210,traffic,urban,8,NO2,µg/m3,08187012_8_8,2020,1,1,01/01/2020,29,V,42,V,24,V,31,V,19,V,19,V,20,V,19,V,17,V,18,V,21,V,24,V,25,V,31,V,25,V,24,V,39,V,50,V,54,V,47,V,38,V,30,V,31,V,26,V,"(41.561214, 2.1011107)"
08121013_8_20200101,8121013,8,121,13,Mataró,Mataró,41.547176,2.4432983,40,background,urban,8,NO2,µg/m3,08121013_8_8,2020,1,1,01/01/2020,18,V,24,V,25,V,21,V,18,V,23,V,34,V,23,V,21,V,15,V,8,V,6,V,6,V,9,V,11,V,10,V,8,V,21,V,54,V,63,V,64,V,56,V,53,V,40,V,"(41.547176, 2.4432983)"
08019004_10_20200101,8019004,8,19,4,Barcelona (Poblenou),Barcelona,41.40388,2.204501,3,background,urban,10,PM10,µg/m3,08019004_10_47,2020,1,1,01/01/2020,18,V,13,V,10,V,9,V,8,V,12,V,17,V,18,V,19,V,19,V,16,V,15,V,14,V,14,V,14,V,13,V,14,V,8,V,9,V,13,V,21,V,22,V,24,V,24,V,"(41.40388, 2.204501)"
08252006_8_20200101,8252006,8,252,6,Barberà del Vallès,Barberà del Vallès,41.512684,2.1253984,131,background,urban,8,NO2,µg/m3,08252006_8_8,2020,1,1,01/01/2020,17,V,27,V,23,V,24,V,27,V,23,V,25,V,22,V,20,V,17,V,18,V,31,V,15,V,13,V,15,V,16,V,32,V,55,V,65,V,60,V,56,V,50,V,51,V,40,V,"(41.512684, 2.1253984)"
43044003_14_20200101,43044003,43,44,3,La Sénia,"Sénia, la",40.64299,0.28840002,428,background,rural,14,O3,µg/m3,43044003_14_6,2020,1,1,01/01/2020,33,V,33,V,32,V,23,V,28,V,28,V,31,V,35,V,36,V,35,V,38,V,40,V,43,V,42,V,41,V,38,V,35,V,32,V,27,V,25,V,19,V,23,V,29,V,29,V,"(40.64299, 0.28840002)"
17013001_14_20200101,17013001,17,13,1,Begur,Begur,41.95867,3.2129009,200,background,rural,14,O3,µg/m3,17013001_14_6,2020,1,1,01/01/2020,40,V,40,V,41,V,39,V,40,V,36,V,36,V,37,V,38,V,35,V,33,V,32,V,38,V,42,V,46,V,53,V,57,V,57,V,58,V,59,V,58,V,57,V,57,V,56,V,"(41.95867, 3.2129009)"
08019058_10_20200101,8019058,8,19,58,Barcelona (Observatori Fabra),Barcelona,41.41843,2.1238973,415,background,suburban,10,PM10,µg/m3,08019058_10_47,2020,1,1,01/01/2020,9,V,8,V,8,V,12,V,10,V,10,V,12,V,19,V,16,V,20,V,18,V,14,V,14,V,14,V,18,V,20,V,18,V,17,V,18,V,17,V,14,V,13,V,14,V,15,V,"(41.41843, 2.1238973)"
08283004_14_20200101,8283004,8,283,4,Tona (Zona Esportiva),Tona,41.84666,2.2175014,620,background,rural,14,O3,µg/m3,08283004_14_6,2020,1,1,01/01/2020,32,V,29,V,30,V,29,V,24,V,23,V,23,V,21,V,21,V,21,V,18,V,20,V,24,V,35,V,44,V,46,V,45,V,43,V,17,V,12,V,14,V,12,V,14,V,9,V,"(41.84666, 2.2175014)"
08121013_14_20200101,8121013,8,121,13,Mataró,Mataró,41.547176,2.4432983,40,background,urban,14,O3,µg/m3,08121013_14_6,2020,1,1,01/01/2020,28,V,24,V,20,V,21,V,25,V,21,V,9,V,21,V,21,V,29,V,39,V,46,V,55,V,56,V,50,V,52,V,56,V,41,V,15,V,9,V,8,V,11,V,11,V,18,V,"(41.547176, 2.4432983)"
17013001_8_20200101,17013001,17,13,1,Begur,Begur,41.95867,3.2129009,200,background,rural,8,NO2,µg/m3,17013001_8_8,2020,1,1,01/01/2020,5,V,5,V,4,V,4,V,4,V,4,V,4,V,4,V,4,V,5,V,4,V,4,V,5,V,4,V,5,V,4,V,4,V,7,V,8,V,7,V,7,V,6,V,5,V,4,V,"(41.95867, 3.2129009)"
08202001_8_20200101,8202001,8,202,1,Sant Celoni,Sant Celoni,41.6891,2.495701,145,background,suburban,8,NO2,µg/m3,08202001_8_8,2020,1,1,01/01/2020,20,V,18,V,18,V,16,V,16,V,14,V,11,V,12,V,13,V,15,V,17,V,21,V,19,V,14,V,7,V,9,V,13,V,24,V,55,V,42,V,38,V,32,V,25,V,19,V,"(41.6891, 2.495701)"
43014001_8_20200101,43014001,43,14,1,Amposta,Amposta,40.706703,0.5817011,8,background,suburban,8,NO2,µg/m3,43014001_8_8,2020,1,1,01/01/2020,6,V,6,V,5,V,5,V,5,V,5,V,6,V,6,V,5,V,5,V,5,V,5,V,5,V,6,V,6,V,7,V,9,V,10,V,13,V,10,V,10,V,9,V,7,V,5,V,"(40.706703, 0.5817011)"
17079003_10_20200101,17079003,17,79,3,Girona (Escola de Música),Girona,41.97638,2.8165,73,traffic,urban,10,PM10,µg/m3,17079003_10_47,2020,1,1,01/01/2020,40,V,34,V,35,V,27,V,20,V,15,V,11,V,12,V,12,V,16,V,20,V,18,V,19,V,19,V,17,V,15,V,13,V,19,V,24,V,23,V,30,V,38,V,38,V,31,V,"(41.97638, 2.8165)"
08019058_14_20200101,8019058,8,19,58,Barcelona (Observatori Fabra),Barcelona,41.41843,2.1238973,415,background,suburban,14,O3,µg/m3,08019058_14_6,2020,1,1,01/01/2020,52,V,51,V,56,V,57,V,59,V,54,V,52,V,47,V,46,V,41,V,41,V,38,V,37,V,38,V,33,V,33,V,29,V,25,V,21,V,34,V,46,V,43,V,35,V,41,V,"(41.41843, 2.1238973)"
08263001_10_20200101,8263001,8,263,1,Sant Vicenç dels Horts (Ribot),Sant Vicenç dels Horts,41.39219,2.0097985,38,background,suburban,10,PM10,µg/m3,08263001_10_47,2020,1,1,01/01/2020,,N,,N,,N,,N,,N,,N,,N,,N,,N,,N,,N,,N,,N,,N,,N,,N,,N,,N,,N,,N,,N,,N,,N,,N,"(41.39219, 2.0097985)"
08121013_10_20200101,8121013,8,121,13,Mataró,Mataró,41.547176,2.4432983,40,background,urban,10,PM10,µg/m3,08121013_10_47,2020,1,1,01/01/2020,14,V,14,V,14,V,13,V,13,V,13,V,16,V,16,V,15,V,16,V,14,V,11,V,8,V,8,V,10,V,11,V,10,V,12,V,22,V,24,V,23,V,20,V,19,V,15,V,"(41.547176, 2.4432983)"
08169009_8_20200101,8169009,8,169,9,El Prat de Llobregat (Sagnier),"Prat de Llobregat, el",41.321774,2.0821,7,background,suburban,8,NO2,µg/m3,08169009_8_8,2020,1,1,01/01/2020,15,V,30,V,26,V,20,V,18,V,18,V,17,V,15,V,19,V,14,V,10,V,8,V,12,V,18,V,15,V,15,V,12,V,13,V,33,V,59,V,51,V,42,V,38,V,33,V,"(41.321774, 2.0821)"
08283004_8_20200101,8283004,8,283,4,Tona (Zona Esportiva),Tona,41.84666,2.2175014,620,background,rural,8,NO2,µg/m3,08283004_8_8,2020,1,1,01/01/2020,9,V,9,V,8,V,7,V,7,V,6,V,6,V,6,V,6,V,6,V,8,V,6,V,9,V,10,V,7,V,8,V,11,V,12,V,9,V,9,V,8,V,8,V,8,V,10,V,"(41.84666, 2.2175014)"
43014001_14_20200101,43014001,43,14,1,Amposta,Amposta,40.706703,0.5817011,8,background,suburban,14,O3,µg/m3,43014001_14_6,2020,1,1,01/01/2020,29,V,28,V,28,V,29,V,30,V,29,V,29,V,29,V,29,V,29,V,31,V,32,V,33,V,32,V,31,V,32,V,29,V,26,V,23,V,22,V,22,V,23,V,25,V,26,V,"(40.706703, 0.5817011)"
17079003_8_20200101,17079003,17,79,3,Girona (Escola de Música),Girona,41.97638,2.8165,73,traffic,urban,8,NO2,µg/m3,17079003_8_8,2020,1,1,01/01/2020,23,V,21,V,20,V,18,V,14,V,11,V,12,V,12,V,9,V,10,V,12,V,15,V,16,V,12,V,10,V,9,V,12,V,41,V,35,V,41,V,50,V,42,V,35,V,30,V,"(41.97638, 2.8165)"
08019058_8_20200101,8019058,8,19,58,Barcelona (Observatori Fabra),Barcelona,41.41843,2.1238973,415,background,suburban,8,NO2,µg/m3,08019058_8_8,2020,1,1,01/01/2020,5,V,4,V,4,V,4,V,3,V,4,V,4,V,6,V,6,V,6,V,7,V,9,V,8,V,15,V,24,V,23,V,27,V,35,V,40,V,27,V,18,V,20,V,26,V,19,V,"(41.41843, 2.1238973)"
08194008_8_20200101,8194008,8,194,8,Sant Adrià de Besòs,Sant Adrià de Besòs,41.425594,2.2221997,7,industrial,urban,8,NO2,µg/m3,08194008_8_8,2020,1,1,01/01/2020,24,V,40,V,34,V,25,V,26,V,28,V,29,V,29,V,27,V,22,V,19,V,17,V,17,V,19,V,23,V,19,V,19,V,24,V,40,V,67,V,62,V,56,V,49,V,37,V,"(41.425594, 2.2221997)"
43148028_8_20200101,43148028,43,148,28,Tarragona (Parc de la Ciutat),Tarragona,41.1174,1.2417027,13,background,urban,8,NO2,µg/m3,43148028_8_8,2020,1,1,01/01/2020,11,V,10,V,8,V,8,V,7,V,7,V,6,V,7,V,8,V,7,V,6,V,7,V,8,V,9,V,11,V,9,V,9,V,14,V,22,V,28,V,25,V,25,V,21,V,14,V,"(41.1174, 1.2417027)"
08015021_8_20200101,8015021,8,15,21,Badalona,Badalona,41.443985,2.2378986,7,background,urban,8,NO2,µg/m3,08015021_8_8,2020,1,1,01/01/2020,16,V,21,V,20,V,21,V,19,V,19,V,20,V,23,V,26,V,24,V,19,V,21,V,20,V,23,V,23,V,19,V,22,V,27,V,56,V,58,V,54,V,59,V,52,V,43,V,"(41.443985, 2.2378986)"
08251003_8_20200101,8251003,8,251,3,Sta. Margarida i els Monjos (La Ràpita),Santa Margarida i els Monjos,41.308426,1.6472995,155,industrial,rural,8,NO2,µg/m3,08251003_8_8,2020,1,1,01/01/2020,8,V,11,V,10,V,9,V,9,V,9,V,9,V,9,V,8,V,7,V,6,V,5,V,4,V,4,V,8,V,7,V,5,V,7,V,14,V,18,V,36,V,39,V,30,V,25,V,"(41.308426, 1.6472995)"
43014001_10_20200101,43014001,43,14,1,Amposta,Amposta,40.706703,0.5817011,8,background,suburban,10,PM10,µg/m3,43014001_10_47,2020,1,1,01/01/2020,7,V,5,V,5,V,5,V,6,V,7,V,8,V,9,V,9,V,9,V,10,V,10,V,8,V,8,V,10,V,11,V,11,V,12,V,11,V,12,V,10,V,10,V,9,V,8,V,"(40.706703, 0.5817011)"
17001002_14_20200102,17001002,17,1,2,Agullana,Agullana,42.392002,2.8420997,214,background,rural,14,O3,µg/m3,17001002_14_6,2020,1,2,02/01/2020,30,V,29,V,28,V,27,V,30,V,28,V,30,V,34,V,26,V,28,V,38,V,46,V,46,V,45,V,44,V,42,V,36,V,26,V,28,V,29,V,28,V,28,V,25,V,24,V,"(42.392002, 2.8420997)"
08194008_10_20200102,8194008,8,194,8,Sant Adrià de Besòs,Sant Adrià de Besòs,41.425594,2.2221997,7,industrial,urban,10,PM10,µg/m3,08194008_10_47,2020,1,2,02/01/2020,18,V,14,V,13,V,12,V,12,V,13,V,16,V,20,V,21,V,23,V,26,V,27,V,24,V,20,V,18,V,14,V,14,V,16,V,20,V,30,V,44,V,40,V,32,V,25,V,"(41.425594, 2.2221997)"
08263001_14_20200102,8263001,8,263,1,Sant Vicenç dels Horts (Ribot),Sant Vicenç dels Horts,41.39219,2.0097985,38,background,suburban,14,O3,µg/m3,08263001_14_6,2020,1,2,02/01/2020,1,V,1,V,1,V,1,V,1,V,1,V,1,V,1,V,1,V,1,V,2,V,4,V,6,V,3,V,1,V,1,V,1,V,1,V,1,V,1,V,1,V,1,V,1,V,1,V,"(41.39219, 2.0097985)"
08194008_14_20200102,8194008,8,194,8,Sant Adrià de Besòs,Sant Adrià de Besòs,41.425594,2.2221997,7,industrial,urban,14,O3,µg/m3,08194008_14_6,2020,1,2,02/01/2020,6,V,6,V,6,V,7,V,4,V,2,V,2,V,2,V,2,V,2,V,3,V,7,V,14,V,17,V,40,V,46,V,42,V,28,V,7,V,2,V,2,V,1,V,2,V,3,V,"(41.425594, 2.2221997)"
08263001_10_20200102,8263001,8,263,1,Sant Vicenç dels Horts (Ribot),Sant Vicenç dels Horts,41.39219,2.0097985,38,background,suburban,10,PM10,µg/m3,08263001_10_47,2020,1,2,02/01/2020,,N,,N,,N,,N,,N,,N,,N,,N,,N,,N,,N,,N,,N,,N,36,V,28,V,21,V,21,V,31,V,37,V,38,V,34,V,35,V,30,V,"(41.39219, 2.0097985)"
08194008_8_20200102,8194008,8,194,8,Sant Adrià de Besòs,Sant Adrià de Besòs,41.425594,2.2221997,7,industrial,urban,8,NO2,µg/m3,08194008_8_8,2020,1,2,02/01/2020,26,V,23,V,20,V,17,V,18,V,21,V,25,V,27,V,28,V,31,V,33,V,33,V,31,V,35,V,24,V,23,V,31,V,45,V,73,V,89,V,78,V,62,V,55,V,49,V,"(41.425594, 2.2221997)"
43148003_10_20200102,43148003,43,148,3,Tarragona (Bonavista),Tarragona,41.11591,1.1919986,39,industrial,suburban,10,PM10,µg/m3,43148003_10_47,2020,1,2,02/01/2020,19,V,18,V,17,V,15,V,14,V,14,V,14,V,15,V,16,V,15,V,20,V,21,V,28,V,34,V,26,V,23,V,21,V,19,V,28,V,31,V,50,V,36,V,28,V,21,V,"(41.11591, 1.1919986)"
08260010_8_20200102,8260010,8,260,10,Santa Perpètua de Mogoda,Santa Perpètua de Mogoda,41.526722,2.1838,84,background,suburban,8,NO2,µg/m3,08260010_8_8,2020,1,2,02/01/2020,22,V,18,V,15,V,15,V,15,V,19,V,22,V,24,V,28,V,33,V,31,V,42,V,29,V,23,V,12,V,15,V,19,V,44,V,59,V,58,V,57,V,57,V,53,V,43,V,"(41.526722, 2.1838)"
08196001_8_20200102,8196001,8,196,1,Sant Andreu de la Barca,Sant Andreu de la Barca,41.4508,1.9748996,40,traffic,suburban,8,NO2,µg/m3,08196001_8_8,2020,1,2,02/01/2020,24,V,20,V,18,V,16,V,17,V,19,V,24,V,29,V,29,V,29,V,46,V,26,V,30,V,34,V,33,V,36,V,46,V,57,V,45,V,43,V,40,V,40,V,34,V,32,V,"(41.4508, 1.9748996)"
08260010_10_20200102,8260010,8,260,10,Santa Perpètua de Mogoda,Santa Perpètua de Mogoda,41.526722,2.1838,84,background,suburban,10,PM10,µg/m3,08260010_10_47,2020,1,2,02/01/2020,21,V,21,V,18,V,17,V,19,V,21,V,16,V,15,V,16,V,17,V,22,V,25,V,25,V,20,V,15,V,12,V,14,V,16,V,28,V,39,V,40,V,45,V,42,V,31,V,"(41.526722, 2.1838)"
08202001_10_20200102,8202001,8,202,1,Sant Celoni,Sant Celoni,41.6891,2.495701,145,background,suburban,10,PM10,µg/m3,08202001_10_47,2020,1,2,02/01/2020,19,V,17,V,16,V,16,V,14,V,14,V,16,V,18,V,21,V,29,V,30,V,22,V,19,V,16,V,17,V,18,V,18,V,26,V,43,V,49,V,38,V,37,V,33,V,25,V,"(41.6891, 2.495701)"
08259002_14_20200102,8259002,8,259,2,Santa Maria de Palautordera,Santa Maria de Palautordera,41.691273,2.4408977,210,background,rural,14,O3,µg/m3,08259002_14_6,2020,1,2,02/01/2020,8,V,6,V,4,V,5,V,3,V,4,V,5,V,3,V,2,V,5,V,7,V,13,V,18,V,23,V,34,V,45,V,45,V,35,V,18,V,6,V,4,V,6,V,8,V,12,V,"(41.691273, 2.4408977)"
08202001_14_20200102,8202001,8,202,1,Sant Celoni,Sant Celoni,41.6891,2.495701,145,background,suburban,14,O3,µg/m3,08202001_14_6,2020,1,2,02/01/2020,1,V,1,V,1,V,1,V,1,V,1,V,1,V,1,V,1,V,2,V,2,V,15,V,29,V,30,V,30,V,35,V,36,V,9,V,3,V,2,V,2,V,2,V,1,V,1,V,"(41.6891, 2.495701)"
08019044_14_20200102,8019044,8,19,44,Barcelona (Gràcia - Sant Gervasi),Barcelona,41.398724,2.1533988,57,traffic,urban,14,O3,µg/m3,08019044_14_6,2020,1,2,02/01/2020,5,V,5,V,8,V,9,V,7,V,3,V,2,V,2,V,6,V,15,V,23,V,28,V,38,V,42,V,43,V,41,V,40,V,29,V,13,V,9,V,13,V,20,V,22,V,23,V,"(41.398724, 2.1533988)"
08252006_8_20200102,8252006,8,252,6,Barberà del Vallès,Barberà del Vallès,41.512684,2.1253984,131,background,urban,8,NO2,µg/m3,08252006_8_8,2020,1,2,02/01/2020,32,V,24,V,21,V,18,V,20,V,21,V,22,V,24,V,28,V,49,V,43,V,41,V,44,V,20,V,13,V,15,V,24,V,55,V,63,V,64,V,65,V,56,V,55,V,46,V,"(41.512684, 2.1253984)"
08202001_8_20200102,8202001,8,202,1,Sant Celoni,Sant Celoni,41.6891,2.495701,145,background,suburban,8,NO2,µg/m3,08202001_8_8,2020,1,2,02/01/2020,16,V,14,V,13,V,15,V,14,V,17,V,18,V,26,V,30,V,34,V,36,V,26,V,19,V,26,V,29,V,25,V,25,V,57,V,79,V,52,V,45,V,59,V,50,V,51,V,"(41.6891, 2.495701)"
08251003_8_20200102,8251003,8,251,3,Sta. Margarida i els Monjos (La Ràpita),Santa Margarida i els Monjos,41.308426,1.6472995,155,industrial,rural,8,NO2,µg/m3,08251003_8_8,2020,1,2,02/01/2020,27,V,19,V,14,V,17,V,18,V,20,V,23,V,25,V,25,V,26,V,25,V,28,V,35,V,21,V,13,V,8,V,13,V,17,V,18,V,20,V,22,V,24,V,43,V,38,V,"(41.308426, 1.6472995)"
08245012_8_20200102,8245012,8,245,12,Santa Coloma de Gramenet,Santa Coloma de Gramenet,41.447422,2.209497,23,background,urban,8,NO2,µg/m3,08245012_8_8,2020,1,2,02/01/2020,23,V,21,V,18,V,15,V,16,V,19,V,24,V,25,V,26,V,28,V,29,V,32,V,27,V,25,V,26,V,32,V,46,V,60,V,73,V,69,V,61,V,53,V,48,V,41,V,"(41.447422, 2.209497)"
08205002_14_20200102,8205002,8,205,2,Sant Cugat del Vallès,Sant Cugat del Vallès,41.476814,2.0889983,113,background,urban,14,O3,µg/m3,08205002_14_6,2020,1,2,02/01/2020,2,V,2,V,2,V,2,V,1,V,1,V,1,V,1,V,1,V,1,V,2,V,7,V,13,V,22,V,25,V,26,V,16,V,2,V,1,V,3,V,2,V,2,V,1,V,1,V,"(41.476814, 2.0889983)"
08221004_10_20200102,8221004,8,221,4,Sant Just Desvern (CEIP Montseny),Sant Just Desvern,41.381874,2.0662978,85,industrial,suburban,10,PM10,µg/m3,08221004_10_47,2020,1,2,02/01/2020,,N,,N,,N,,N,,N,,N,,N,,N,,N,,N,,N,,N,,N,,N,,N,,N,,N,,N,,N,,N,,N,,N,,N,,N,"(41.381874, 2.0662978)"
08205002_8_20200102,8205002,8,205,2,Sant Cugat del Vallès,Sant Cugat del Vallès,41.476814,2.0889983,113,background,urban,8,NO2,µg/m3,08205002_8_8,2020,1,2,02/01/2020,28,V,25,V,22,V,21,V,20,V,17,V,18,V,19,V,22,V,26,V,30,V,22,V,20,V,21,V,22,V,27,V,39,V,55,V,47,V,70,V,64,V,53,V,49,V,43,V,"(41.476814, 2.0889983)"
08211004_8_20200102,8211004,8,211,4,Sant Feliu de Ll. (CEIP Marti i Pol),Sant Feliu de Llobregat,41.386574,2.0573997,81,industrial,suburban,8,NO2,µg/m3,08211004_8_8,2020,1,2,02/01/2020,,N,,N,,N,,N,,N,,N,,N,,N,,N,,N,,N,,N,,N,,N,,N,,N,,N,,N,,N,,N,,N,,N,,N,,N,"(41.386574, 2.0573997)"
43148001_8_20200102,43148001,43,148,1,Tarragona (Sant Salvador),Tarragona,41.15951,1.2396973,77,traffic,suburban,8,NO2,µg/m3,43148001_8_8,2020,1,2,02/01/2020,9,V,7,V,6,V,6,V,6,V,9,V,14,V,17,V,21,V,20,V,16,V,15,V,14,V,15,V,26,V,31,V,42,V,57,V,65,V,60,V,46,V,40,V,36,V,25,V,"(41.15951, 1.2396973)"
08019044_8_20200102,8019044,8,19,44,Barcelona (Gràcia - Sant Gervasi),Barcelona,41.398724,2.1533988,57,traffic,urban,8,NO2,µg/m3,08019044_8_8,2020,1,2,02/01/2020,48,V,42,V,37,V,33,V,35,V,35,V,43,V,46,V,53,V,46,V,33,V,34,V,29,V,27,V,26,V,29,V,35,V,48,V,64,V,67,V,58,V,46,V,39,V,40,V,"(41.398724, 2.1533988)"
43123005_8_20200102,43123005,43,123,5,Reus,Reus,41.150803,1.1202013,102,traffic,suburban,8,NO2,µg/m3,43123005_8_8,2020,1,2,02/01/2020,21,V,16,V,21,V,22,V,18,V,18,V,22,V,34,V,31,V,35,V,29,V,27,V,17,V,24,V,20,V,14,V,22,V,41,V,53,V,49,V,44,V,38,V,32,V,34,V,"(41.150803, 1.1202013)"
08019050_14_20200102,8019050,8,19,50,Barcelona (Ciutadella),Barcelona,41.386406,2.1873982,7,background,urban,14,O3,µg/m3,08019050_14_6,2020,1,2,02/01/2020,1,V,1,V,1,V,1,V,2,V,3,V,1,V,1,V,1,V,2,V,4,V,13,V,39,V,45,V,46,V,46,V,42,V,30,V,4,V,2,V,8,V,17,V,13,V,2,V,"(41.386406, 2.1873982)"
08019042_8_20200102,8019042,8,19,42,Barcelona (Sants),Barcelona,41.37878,2.133099,35,background,urban,8,NO2,µg/m3,08019042_8_8,2020,1,2,02/01/2020,33,V,31,V,37,V,32,V,29,V,27,V,30,V,37,V,43,V,42,V,44,V,26,V,21,V,20,V,22,V,22,V,20,V,24,V,64,V,64,V,59,V,42,V,32,V,36,V,"(41.37878, 2.133099)"
43123005_14_20200102,43123005,43,123,5,Reus,Reus,41.150803,1.1202013,102,traffic,suburban,14,O3,µg/m3,43123005_14_6,2020,1,2,02/01/2020,2,V,6,V,3,V,1,V,2,V,3,V,1,V,1,V,1,V,1,V,10,V,25,V,31,V,40,V,40,V,44,V,34,V,13,V,2,V,2,V,2,V,2,V,6,V,4,V,"(41.150803, 1.1202013)"
08019050_8_20200102,8019050,8,19,50,Barcelona (Ciutadella),Barcelona,41.386406,2.1873982,7,background,urban,8,NO2,µg/m3,08019050_8_8,2020,1,2,02/01/2020,41,V,34,V,27,V,23,V,19,V,19,V,20,V,27,V,33,V,35,V,59,V,42,V,23,V,21,V,22,V,24,V,29,V,42,V,66,V,68,V,60,V,44,V,43,V,48,V,"(41.386406, 2.1873982)"
43123005_10_20200102,43123005,43,123,5,Reus,Reus,41.150803,1.1202013,102,traffic,suburban,10,PM10,µg/m3,43123005_10_47,2020,1,2,02/01/2020,25,V,13,V,13,V,11,V,12,V,10,V,13,V,25,V,36,V,48,V,55,V,6,V,2,V,29,V,35,V,21,V,19,V,15,V,22,V,45,V,62,V,56,V,40,V,35,V,"(41.150803, 1.1202013)"
08019054_10_20200102,8019054,8,19,54,Barcelona (Parc Vall Hebron),Barcelona,41.42611,2.1480017,136,background,urban,10,PM10,µg/m3,08019054_10_47,2020,1,2,02/01/2020,19,V,15,V,16,V,15,V,14,V,14,V,17,V,18,V,21,V,26,V,18,V,16,V,11,V,7,V,10,V,11,V,12,V,15,V,18,V,18,V,16,V,12,V,14,V,15,V,"(41.42611, 2.1480017)"
43103001_8_20200102,43103001,43,103,1,Perafort (Puigdelfí),Perafort,41.193604,1.2367008,97,industrial,rural,8,NO2,µg/m3,43103001_8_8,2020,1,2,02/01/2020,12,V,10,V,9,V,8,V,7,V,7,V,11,V,10,V,14,V,10,V,10,V,10,V,12,V,9,V,10,V,9,V,28,V,32,V,39,V,37,V,37,V,34,V,32,V,24,V,"(41.193604, 1.2367008)"
08019054_14_20200102,8019054,8,19,54,Barcelona (Parc Vall Hebron),Barcelona,41.42611,2.1480017,136,background,urban,14,O3,µg/m3,08019054_14_6,2020,1,2,02/01/2020,12,V,4,V,7,V,11,V,7,V,6,V,3,V,2,V,2,V,6,V,,N,,N,,N,51,V,57,V,57,V,50,V,29,V,38,V,22,V,38,V,43,V,32,V,12,V,"(41.42611, 2.1480017)"
08019004_8_20200102,8019004,8,19,4,Barcelona (Poblenou),Barcelona,41.40388,2.204501,3,background,urban,8,NO2,µg/m3,08019004_8_8,2020,1,2,02/01/2020,37,V,30,V,26,V,23,V,21,V,22,V,24,V,28,V,29,V,30,V,35,V,40,V,38,V,36,V,33,V,35,V,45,V,53,V,65,V,67,V,61,V,49,V,60,V,55,V,"(41.40388, 2.204501)"
43070001_14_20200102,43070001,43,70,1,Els Guiamets,"Guiamets, els",41.100723,0.755101,220,background,rural,14,O3,µg/m3,43070001_14_6,2020,1,2,02/01/2020,25,V,24,V,23,V,23,V,24,V,23,V,25,V,24,V,24,V,24,V,23,V,23,V,21,V,21,V,26,V,27,V,24,V,22,V,25,V,22,V,18,V,18,V,17,V,16,V,"(41.100723, 0.755101)"
08019054_8_20200102,8019054,8,19,54,Barcelona (Parc Vall Hebron),Barcelona,41.42611,2.1480017,136,background,urban,8,NO2,µg/m3,08019054_8_8,2020,1,2,02/01/2020,,N,,N,,N,,N,,N,,N,,N,,N,,N,,N,,N,,N,13,V,9,V,9,V,10,V,19,V,40,V,33,V,,N,,N,,N,,N,,N,"(41.42611, 2.1480017)"
43064001_14_20200102,43064001,43,64,1,Gandesa,Gandesa,41.058212,0.43969983,368,background,rural,14,O3,µg/m3,43064001_14_6,2020,1,2,02/01/2020,29,V,28,V,26,V,27,V,26,V,25,V,25,V,23,V,21,V,21,V,19,V,20,V,19,V,19,V,21,V,22,V,22,V,21,V,21,V,18,V,17,V,18,V,17,V,15,V,"(41.058212, 0.43969983)"
08019057_10_20200102,8019057,8,19,57,Barcelona (Palau Reial),Barcelona,41.38749,2.1151996,81,background,urban,10,PM10,µg/m3,08019057_10_47,2020,1,2,02/01/2020,16,V,15,V,17,V,14,V,12,V,12,V,12,V,17,V,25,V,30,V,16,V,60,V,15,V,15,V,17,V,17,V,21,V,17,V,23,V,22,V,17,V,16,V,15,V,12,V,"(41.38749, 2.1151996)"
43047001_8_20200102,43047001,43,47,1,Constantí,Constantí,41.15493,1.2177014,56,industrial,suburban,8,NO2,µg/m3,43047001_8_8,2020,1,2,02/01/2020,12,V,9,V,11,V,14,V,18,V,21,V,21,V,21,V,19,V,22,V,22,V,20,V,19,V,16,V,28,V,23,V,40,V,49,V,52,V,45,V,31,V,30,V,26,V,23,V,"(41.15493, 1.2177014)"
08019057_14_20200102,8019057,8,19,57,Barcelona (Palau Reial),Barcelona,41.38749,2.1151996,81,background,urban,14,O3,µg/m3,08019057_14_6,2020,1,2,02/01/2020,7,V,10,V,6,V,5,V,5,V,5,V,3,V,2,V,2,V,9,V,20,V,48,V,52,V,52,V,,N,,N,48,V,31,V,6,V,12,V,30,V,31,V,36,V,43,V,"(41.38749, 2.1151996)"
08019004_10_20200102,8019004,8,19,4,Barcelona (Poblenou),Barcelona,41.40388,2.204501,3,background,urban,10,PM10,µg/m3,08019004_10_47,2020,1,2,02/01/2020,18,V,10,V,12,V,10,V,10,V,13,V,19,V,21,V,30,V,29,V,33,V,38,V,30,V,16,V,16,V,17,V,23,V,27,V,23,V,24,V,19,V,17,V,21,V,26,V,"(41.40388, 2.204501)"
43047001_14_20200102,43047001,43,47,1,Constantí,Constantí,41.15493,1.2177014,56,industrial,suburban,14,O3,µg/m3,43047001_14_6,2020,1,2,02/01/2020,10,V,15,V,15,V,12,V,10,V,9,V,9,V,8,V,7,V,8,V,15,V,32,V,36,V,38,V,44,V,43,V,25,V,9,V,1,V,1,V,1,V,1,V,1,V,1,V,"(41.15493, 1.2177014)"
08019057_8_20200102,8019057,8,19,57,Barcelona (Palau Reial),Barcelona,41.38749,2.1151996,81,background,urban,8,NO2,µg/m3,08019057_8_8,2020,1,2,02/01/2020,36,V,27,V,31,V,29,V,25,V,27,V,29,V,40,V,40,V,28,V,34,V,16,V,14,V,19,V,,N,,N,28,V,46,V,76,V,58,V,33,V,30,V,23,V,22,V,"(41.38749, 2.1151996)"
43044003_14_20200102,43044003,43,44,3,La Sénia,"Sénia, la",40.64299,0.28840002,428,background,rural,14,O3,µg/m3,43044003_14_6,2020,1,2,02/01/2020,34,V,36,V,36,V,37,V,40,V,41,V,41,V,41,V,48,V,43,V,49,V,53,V,56,V,57,V,57,V,52,V,43,V,34,V,31,V,30,V,35,V,38,V,35,V,32,V,"(40.64299, 0.28840002)"
08019058_10_20200102,8019058,8,19,58,Barcelona (Observatori Fabra),Barcelona,41.41843,2.1238973,415,background,suburban,10,PM10,µg/m3,08019058_10_47,2020,1,2,02/01/2020,14,V,13,V,13,V,12,V,11,V,10,V,11,V,12,V,12,V,11,V,12,V,12,V,11,V,10,V,11,V,13,V,13,V,16,V,15,V,13,V,13,V,13,V,12,V,12,V,"(41.41843, 2.1238973)"
43014001_8_20200102,43014001,43,14,1,Amposta,Amposta,40.706703,0.5817011,8,background,suburban,8,NO2,µg/m3,43014001_8_8,2020,1,2,02/01/2020,5,V,4,V,4,V,4,V,4,V,5,V,6,V,9,V,10,V,9,V,10,V,11,V,11,V,10,V,8,V,11,V,15,V,23,V,24,V,25,V,19,V,14,V,11,V,8,V,"(40.706703, 0.5817011)"
08019058_14_20200102,8019058,8,19,58,Barcelona (Observatori Fabra),Barcelona,41.41843,2.1238973,415,background,suburban,14,O3,µg/m3,08019058_14_6,2020,1,2,02/01/2020,34,V,32,V,36,V,42,V,42,V,42,V,49,V,51,V,56,V,57,V,54,V,53,V,57,V,62,V,64,V,64,V,60,V,59,V,65,V,64,V,60,V,51,V,52,V,57,V,"(41.41843, 2.1238973)"
08015021_8_20200102,8015021,8,15,21,Badalona,Badalona,41.443985,2.2378986,7,background,urban,8,NO2,µg/m3,08015021_8_8,2020,1,2,02/01/2020,29,V,30,V,18,V,16,V,16,V,19,V,27,V,31,V,29,V,33,V,34,V,32,V,32,V,28,V,28,V,37,V,49,V,60,V,74,V,80,V,75,V,57,V,45,V,34,V,"(41.443985, 2.2378986)"
43014001_14_20200102,43014001,43,14,1,Amposta,Amposta,40.706703,0.5817011,8,background,suburban,14,O3,µg/m3,43014001_14_6,2020,1,2,02/01/2020,26,V,27,V,27,V,26,V,26,V,24,V,23,V,20,V,18,V,19,V,21,V,22,V,23,V,27,V,31,V,27,V,21,V,13,V,8,V,7,V,10,V,13,V,14,V,15,V,"(40.706703, 0.5817011)"
08019058_8_20200102,8019058,8,19,58,Barcelona (Observatori Fabra),Barcelona,41.41843,2.1238973,415,background,suburban,8,NO2,µg/m3,08019058_8_8,2020,1,2,02/01/2020,17,V,17,V,14,V,8,V,8,V,7,V,5,V,4,V,4,V,4,V,4,V,5,V,5,V,5,V,6,V,7,V,10,V,10,V,6,V,5,V,6,V,10,V,14,V,11,V,"(41.41843, 2.1238973)"
43014001_10_20200102,43014001,43,14,1,Amposta,Amposta,40.706703,0.5817011,8,background,suburban,10,PM10,µg/m3,43014001_10_47,2020,1,2,02/01/2020,7,V,7,V,7,V,6,V,6,V,6,V,6,V,8,V,9,V,10,V,13,V,13,V,14,V,17,V,15,V,16,V,17,V,16,V,18,V,22,V,24,V,19,V,19,V,16,V,"(40.706703, 0.5817011)"
08022006_10_20200102,8022006,8,22,6,Berga,Berga,42.0979,1.8482014,661,background,suburban,10,PM10,µg/m3,08022006_10_47,2020,1,2,02/01/2020,6,V,3,V,3,V,3,V,4,V,4,V,5,V,12,V,12,V,,N,,N,,N,11,V,10,V,12,V,19,V,22,V,26,V,39,V,26,V,20,V,16,V,14,V,10,V,"(42.0979, 1.8482014)"
43013002_8_20200102,43013002,43,13,2,L'Ametlla de Mar,"Ametlla de Mar, l'",40.90248,0.8097212,34,background,rural,8,NO2,µg/m3,43013002_8_8,2020,1,2,02/01/2020,1,V,1,V,1,V,2,V,2,V,1,V,2,V,2,V,2,V,2,V,2,V,2,V,3,V,2,V,2,V,2,V,3,V,3,V,3,V,3,V,3,V,3,V,3,V,3,V,"(40.90248, 0.8097212)"
08022006_14_20200102,8022006,8,22,6,Berga,Berga,42.0979,1.8482014,661,background,suburban,14,O3,µg/m3,08022006_14_6,2020,1,2,02/01/2020,24,V,34,V,35,V,30,V,25,V,25,V,20,V,11,V,11,V,22,V,11,V,18,V,26,V,26,V,33,V,34,V,31,V,13,V,4,V,5,V,6,V,7,V,11,V,14,V,"(42.0979, 1.8482014)"
43005002_8_20200102,43005002,43,5,2,Alcover,Alcover,41.278687,1.1798977,238,industrial,rural,8,NO2,µg/m3,43005002_8_8,2020,1,2,02/01/2020,3,V,6,V,6,V,5,V,5,V,5,V,4,V,4,V,4,V,4,V,3,V,12,V,13,V,14,V,17,V,22,V,23,V,11,V,13,V,8,V,8,V,8,V,8,V,6,V,"(41.278687, 1.1798977)"
08022006_8_20200102,8022006,8,22,6,Berga,Berga,42.0979,1.8482014,661,background,suburban,8,NO2,µg/m3,08022006_8_8,2020,1,2,02/01/2020,15,V,7,V,9,V,14,V,18,V,17,V,22,V,33,V,36,V,23,V,44,V,25,V,14,V,14,V,12,V,14,V,22,V,47,V,58,V,48,V,36,V,31,V,25,V,19,V,"(42.0979, 1.8482014)"
43171001_8_20200102,43171001,43,171,1,Vila-seca,Vila-seca,41.111958,1.1519431,41,background,suburban,8,NO2,µg/m3,43171001_8_8,2020,1,2,02/01/2020,23,V,14,V,12,V,10,V,17,V,18,V,21,V,25,V,32,V,31,V,36,V,23,V,18,V,23,V,18,V,16,V,16,V,25,V,45,V,55,V,56,V,37,V,32,V,29,V,"(41.111958, 1.1519431)"
43005002_14_20200102,43005002,43,5,2,Alcover,Alcover,41.278687,1.1798977,238,industrial,rural,14,O3,µg/m3,43005002_14_6,2020,1,2,02/01/2020,26,V,25,V,24,V,26,V,27,V,28,V,29,V,30,V,33,V,31,V,35,V,30,V,32,V,33,V,33,V,31,V,25,V,20,V,19,V,21,V,22,V,21,V,24,V,29,V,"(41.278687, 1.1798977)"
08058003_8_20200102,8058003,8,58,3,Castellet i la Gornal,Castellet i la Gornal,41.244884,1.6177006,213,background,rural,8,NO2,µg/m3,08058003_8_8,2020,1,2,02/01/2020,16,V,18,V,16,V,29,V,17,V,15,V,18,V,20,V,23,V,24,V,23,V,18,V,19,V,17,V,11,V,7,V,15,V,22,V,19,V,22,V,23,V,21,V,17,V,16,V,"(41.244884, 1.6177006)"
43004005_8_20200102,43004005,43,4,5,Alcanar,Alcanar,40.552807,0.53000027,7,industrial,rural,8,NO2,µg/m3,43004005_8_8,2020,1,2,02/01/2020,5,V,4,V,3,V,3,V,3,V,7,V,6,V,7,V,11,V,10,V,8,V,6,V,8,V,7,V,7,V,7,V,11,V,18,V,21,V,14,V,12,V,13,V,18,V,12,V,"(40.552807, 0.53000027)"
08074005_10_20200102,8074005,8,74,5,Cubelles (Poliesportiu),Cubelles,41.202198,1.6722002,5,industrial,suburban,10,PM10,µg/m3,08074005_10_47,2020,1,2,02/01/2020,,N,,N,,N,,N,,N,,N,,N,,N,,N,,N,,N,,N,,N,,N,,N,,N,,N,,N,,N,,N,,N,,N,,N,,N,"(41.202198, 1.6722002)"
25209001_14_20200102,25209001,25,209,1,Sort,Sort,42.405407,1.1299014,692,background,rural,14,O3,µg/m3,25209001_14_6,2020,1,2,02/01/2020,3,V,3,V,3,V,5,V,2,V,4,V,4,V,2,V,2,V,2,V,11,V,24,V,38,V,47,V,39,V,20,V,14,V,7,V,4,V,1,V,2,V,1,V,1,V,2,V,"(42.405407, 1.1299014)"
08074005_8_20200102,8074005,8,74,5,Cubelles (Poliesportiu),Cubelles,41.202198,1.6722002,5,industrial,suburban,8,NO2,µg/m3,08074005_8_8,2020,1,2,02/01/2020,25,V,24,V,22,V,20,V,16,V,17,V,18,V,22,V,24,V,23,V,24,V,22,V,25,V,14,V,13,V,11,V,11,V,13,V,32,V,33,V,28,V,25,V,20,V,18,V,"(41.202198, 1.6722002)"
43171001_14_20200102,43171001,43,171,1,Vila-seca,Vila-seca,41.111958,1.1519431,41,background,suburban,14,O3,µg/m3,43171001_14_6,2020,1,2,02/01/2020,2,V,7,V,8,V,8,V,2,V,2,V,2,V,2,V,2,V,3,V,6,V,22,V,35,V,29,V,32,V,36,V,36,V,22,V,5,V,3,V,3,V,3,V,2,V,4,V,"(41.111958, 1.1519431)"
25209001_10_20200102,25209001,25,209,1,Sort,Sort,42.405407,1.1299014,692,background,rural,10,PM10,µg/m3,25209001_10_47,2020,1,2,02/01/2020,11,V,9,V,9,V,9,V,9,V,8,V,8,V,8,V,12,V,15,V,18,V,10,V,5,V,3,V,8,V,18,V,25,V,29,V,23,V,19,V,18,V,20,V,15,V,12,V,"(42.405407, 1.1299014)"
08089005_14_20200102,8089005,8,89,5,Gavà,Gavà,41.303097,1.9914981,25,background,suburban,14,O3,µg/m3,08089005_14_6,2020,1,2,02/01/2020,12,V,11,V,13,V,11,V,9,V,8,V,6,V,4,V,3,V,4,V,4,V,9,V,53,V,67,V,69,V,67,V,62,V,29,V,17,V,25,V,32,V,29,V,23,V,56,V,"(41.303097, 1.9914981)"
25196001_8_20200102,25196001,25,196,1,Montsec,Sant Esteve de la Sarga,42.05132,0.7295987,1570,background,rural,8,NO2,µg/m3,25196001_8_8,2020,1,2,02/01/2020,1,V,1,V,1,V,1,V,1,V,1,V,1,V,1,V,1,V,1,V,1,V,1,V,1,V,1,V,1,V,1,V,1,V,1,V,1,V,1,V,1,V,1,V,1,V,1,V,"(42.05132, 0.7295987)"
08089005_8_20200102,8089005,8,89,5,Gavà,Gavà,41.303097,1.9914981,25,background,suburban,8,NO2,µg/m3,08089005_8_8,2020,1,2,02/01/2020,10,V,8,V,7,V,6,V,7,V,9,V,11,V,14,V,17,V,16,V,41,V,44,V,16,V,9,V,8,V,9,V,12,V,22,V,25,V,21,V,17,V,18,V,17,V,10,V,"(41.303097, 1.9914981)"
25196001_14_20200102,25196001,25,196,1,Montsec,Sant Esteve de la Sarga,42.05132,0.7295987,1570,background,rural,14,O3,µg/m3,25196001_14_6,2020,1,2,02/01/2020,88,V,91,V,90,V,88,V,89,V,88,V,86,V,84,V,84,V,87,V,88,V,89,V,94,V,94,V,100,V,105,V,106,V,106,V,105,V,100,V,99,V,103,V,104,V,102,V,"(42.05132, 0.7295987)"
08096014_10_20200102,8096014,8,96,14,Granollers,Granollers,41.598682,2.2870984,133,traffic,urban,10,PM10,µg/m3,08096014_10_47,2020,1,2,02/01/2020,36,V,35,V,30,V,27,V,23,V,24,V,23,V,27,V,22,V,26,V,40,V,40,V,40,V,45,V,21,V,16,V,18,V,29,V,40,V,59,V,65,V,63,V,51,V,43,V,"(41.598682, 2.2870984)"
43171001_10_20200102,43171001,43,171,1,Vila-seca,Vila-seca,41.111958,1.1519431,41,background,suburban,10,PM10,µg/m3,43171001_10_47,2020,1,2,02/01/2020,33,V,26,V,24,V,22,V,27,V,26,V,24,V,26,V,28,V,25,V,32,V,34,V,44,V,39,V,32,V,31,V,24,V,26,V,37,V,40,V,60,V,57,V,47,V,50,V,"(41.111958, 1.1519431)"
25196001_10_20200102,25196001,25,196,1,Montsec,Sant Esteve de la Sarga,42.05132,0.7295987,1570,background,rural,10,PM10,µg/m3,25196001_10_47,2020,1,2,02/01/2020,2,V,2,V,3,V,1,V,1,V,3,V,5,V,5,V,5,V,5,V,4,V,5,V,2,V,2,V,2,V,1,V,2,V,2,V,3,V,3,V,3,V,2,V,2,V,3,V,"(42.05132, 0.7295987)"
08096014_14_20200102,8096014,8,96,14,Granollers,Granollers,41.598682,2.2870984,133,traffic,urban,14,O3,µg/m3,08096014_14_6,2020,1,2,02/01/2020,2,V,1,V,2,V,2,V,2,V,2,V,2,V,2,V,1,V,2,V,3,V,4,V,6,V,11,V,29,V,44,V,34,V,9,V,2,V,2,V,2,V,2,V,2,V,2,V,"(41.598682, 2.2870984)"
25172001_14_20200102,25172001,25,172,1,Ponts,Ponts,41.906708,1.1930013,370,background,rural,14,O3,µg/m3,25172001_14_6,2020,1,2,02/01/2020,17,V,16,V,16,V,17,V,17,V,18,V,17,V,16,V,15,V,15,V,16,V,17,V,18,V,19,V,21,V,21,V,25,V,22,V,19,V,14,V,13,V,11,V,12,V,12,V,"(41.906708, 1.1930013)"
08096014_8_20200102,8096014,8,96,14,Granollers,Granollers,41.598682,2.2870984,133,traffic,urban,8,NO2,µg/m3,08096014_8_8,2020,1,2,02/01/2020,35,V,31,V,20,V,21,V,20,V,24,V,25,V,30,V,27,V,32,V,37,V,52,V,76,V,48,V,29,V,22,V,31,V,62,V,72,V,77,V,76,V,66,V,55,V,44,V,"(41.598682, 2.2870984)"
25120001_8_20200102,25120001,25,120,1,Lleida,Lleida,41.615818,0.6157005,220,traffic,urban,8,NO2,µg/m3,25120001_8_8,2020,1,2,02/01/2020,12,V,9,V,9,V,10,V,9,V,8,V,10,V,12,V,14,V,16,V,20,V,22,V,17,V,23,V,25,V,23,V,28,V,32,V,31,V,32,V,29,V,25,V,21,V,20,V,"(41.615818, 0.6157005)"
08101001_10_20200102,8101001,8,101,1,L'Hospitalet de Llobregat,"Hospitalet de Llobregat, l'",41.370476,2.1149993,29,background,urban,10,PM10,µg/m3,08101001_10_47,2020,1,2,02/01/2020,18,V,15,V,14,V,12,V,9,V,10,V,14,V,22,V,25,V,25,V,25,V,21,V,17,V,18,V,18,V,18,V,17,V,19,V,31,V,30,V,22,V,22,V,18,V,17,V,"(41.370476, 2.1149993)"
43162005_8_20200102,43162005,43,162,5,Vandellòs (Barranc del Terme),Vandellòs i l'Hospitalet de l',40.93944,0.83139044,96,industrial,rural,8,NO2,µg/m3,43162005_8_8,2020,1,2,02/01/2020,2,V,2,V,1,V,1,V,2,V,2,V,2,V,2,V,2,V,3,V,5,V,5,V,8,V,7,V,2,V,3,V,3,V,3,V,4,V,3,V,3,V,3,V,4,V,3,V,"(40.93944, 0.83139044)"
25120001_14_20200102,25120001,25,120,1,Lleida,Lleida,41.615818,0.6157005,220,traffic,urban,14,O3,µg/m3,25120001_14_6,2020,1,2,02/01/2020,20,V,22,V,22,V,20,V,20,V,21,V,19,V,20,V,19,V,17,V,13,V,11,V,15,V,11,V,12,V,12,V,10,V,8,V,10,V,8,V,10,V,12,V,13,V,11,V,"(41.615818, 0.6157005)"
08101001_8_20200102,8101001,8,101,1,L'Hospitalet de Llobregat,"Hospitalet de Llobregat, l'",41.370476,2.1149993,29,background,urban,8,NO2,µg/m3,08101001_8_8,2020,1,2,02/01/2020,48,V,40,V,36,V,34,V,27,V,27,V,30,V,49,V,45,V,46,V,41,V,31,V,27,V,27,V,27,V,24,V,23,V,33,V,75,V,68,V,60,V,53,V,44,V,53,V,"(41.370476, 2.1149993)"
25120001_10_20200102,25120001,25,120,1,Lleida,Lleida,41.615818,0.6157005,220,traffic,urban,10,PM10,µg/m3,25120001_10_47,2020,1,2,02/01/2020,9,V,10,V,9,V,9,V,9,V,7,V,7,V,7,V,7,V,7,V,20,V,13,V,10,V,14,V,17,V,18,V,20,V,21,V,19,V,20,V,21,V,18,V,17,V,16,V,"(41.615818, 0.6157005)"
08102005_14_20200102,8102005,8,102,5,Igualada,Igualada,41.5784,1.6230061,311,industrial,suburban,14,O3,µg/m3,08102005_14_6,2020,1,2,02/01/2020,5,V,13,V,13,V,13,V,12,V,11,V,7,V,5,V,6,V,10,V,11,V,13,V,15,V,12,V,20,V,30,V,25,V,13,V,3,V,2,V,4,V,3,V,4,V,4,V,"(41.5784, 1.6230061)"
25119002_8_20200102,25119002,25,119,2,Juneda (Pla del Molí),Juneda,41.544083,0.8299007,255,background,rural,8,NO2,µg/m3,25119002_8_8,2020,1,2,02/01/2020,10,V,7,V,6,V,4,V,3,V,3,V,4,V,6,V,8,V,9,V,11,V,9,V,8,V,9,V,10,V,15,V,20,V,12,V,9,V,11,V,9,V,14,V,11,V,10,V,"(41.544083, 0.8299007)"
25119002_14_20200102,25119002,25,119,2,Juneda (Pla del Molí),Juneda,41.544083,0.8299007,255,background,rural,14,O3,µg/m3,25119002_14_6,2020,1,2,02/01/2020,20,V,22,V,24,V,22,V,22,V,22,V,16,V,16,V,18,V,20,V,15,V,21,V,22,V,22,V,21,V,17,V,14,V,17,V,21,V,18,V,19,V,16,V,14,V,15,V,"(41.544083, 0.8299007)"
08102005_8_20200102,8102005,8,102,5,Igualada,Igualada,41.5784,1.6230061,311,industrial,suburban,8,NO2,µg/m3,08102005_8_8,2020,1,2,02/01/2020,16,V,8,V,5,V,5,V,7,V,9,V,12,V,19,V,16,V,13,V,13,V,15,V,16,V,18,V,17,V,15,V,29,V,40,V,30,V,27,V,26,V,24,V,21,V,18,V,"(41.5784, 1.6230061)"
25119002_10_20200102,25119002,25,119,2,Juneda (Pla del Molí),Juneda,41.544083,0.8299007,255,background,rural,10,PM10,µg/m3,25119002_10_47,2020,1,2,02/01/2020,13,V,14,V,14,V,11,V,10,V,10,V,10,V,11,V,13,V,12,V,13,V,13,V,12,V,12,V,16,V,20,V,24,V,18,V,15,V,20,V,23,V,23,V,19,V,17,V,"(41.544083, 0.8299007)"
08112003_10_20200102,8112003,8,112,3,Manlleu,Manlleu,42.003307,2.2872992,460,background,suburban,10,PM10,µg/m3,08112003_10_47,2020,1,2,02/01/2020,33,V,35,V,26,V,17,V,15,V,20,V,21,V,21,V,22,V,22,V,21,V,21,V,33,V,31,V,36,V,22,V,18,V,18,V,39,V,53,V,53,V,53,V,53,V,39,V,"(42.003307, 2.2872992)"
43162002_8_20200102,43162002,43,162,2,Vandellòs (Viver),Vandellòs i l'Hospitalet de l',41.009453,0.91277903,60,industrial,rural,8,NO2,µg/m3,43162002_8_8,2020,1,2,02/01/2020,5,V,4,V,3,V,3,V,4,V,3,V,4,V,4,V,7,V,9,V,9,V,8,V,6,V,7,V,6,V,6,V,8,V,22,V,21,V,23,V,20,V,17,V,10,V,5,V,"(41.009453, 0.91277903)"
25051001_8_20200102,25051001,25,51,1,Bellver de Cerdanya,Bellver de Cerdanya,42.368282,1.7767994,1060,background,rural,8,NO2,µg/m3,25051001_8_8,2020,1,2,02/01/2020,23,V,21,V,19,V,19,V,17,V,15,V,18,V,19,V,19,V,18,V,21,V,12,V,11,V,10,V,7,V,6,V,9,V,36,V,42,V,42,V,43,V,41,V,32,V,32,V,"(42.368282, 1.7767994)"
08112003_14_20200102,8112003,8,112,3,Manlleu,Manlleu,42.003307,2.2872992,460,background,suburban,14,O3,µg/m3,08112003_14_6,2020,1,2,02/01/2020,1,V,1,V,1,V,1,V,1,V,1,V,1,V,2,V,2,V,4,V,14,V,18,V,16,V,18,V,22,V,24,V,17,V,22,V,3,V,2,V,4,V,2,V,3,V,2,V,"(42.003307, 2.2872992)"
25051001_14_20200102,25051001,25,51,1,Bellver de Cerdanya,Bellver de Cerdanya,42.368282,1.7767994,1060,background,rural,14,O3,µg/m3,25051001_14_6,2020,1,2,02/01/2020,2,V,2,V,3,V,2,V,2,V,2,V,1,V,1,V,2,V,4,V,13,V,29,V,41,V,52,V,59,V,58,V,45,V,18,V,11,V,8,V,5,V,4,V,4,V,4,V,"(42.368282, 1.7767994)"
08112003_8_20200102,8112003,8,112,3,Manlleu,Manlleu,42.003307,2.2872992,460,background,suburban,8,NO2,µg/m3,08112003_8_8,2020,1,2,02/01/2020,21,V,19,V,20,V,22,V,22,V,18,V,20,V,19,V,18,V,20,V,18,V,19,V,48,V,36,V,31,V,24,V,29,V,42,V,63,V,50,V,46,V,40,V,35,V,30,V,"(42.003307, 2.2872992)"
25051001_10_20200102,25051001,25,51,1,Bellver de Cerdanya,Bellver de Cerdanya,42.368282,1.7767994,1060,background,rural,10,PM10,µg/m3,25051001_10_47,2020,1,2,02/01/2020,27,V,23,V,18,V,17,V,19,V,17,V,18,V,21,V,22,V,27,V,,N,,N,,N,,N,,N,,N,,N,,N,,N,19,V,34,V,62,V,36,V,25,V,"(42.368282, 1.7767994)"
08015021_14_20200102,8015021,8,15,21,Badalona,Badalona,41.443985,2.2378986,7,background,urban,14,O3,µg/m3,08015021_14_6,2020,1,2,02/01/2020,6,V,5,V,12,V,11,V,10,V,6,V,2,V,1,V,1,V,2,V,4,V,12,V,19,V,24,V,26,V,21,V,15,V,13,V,5,V,1,V,1,V,2,V,8,V,14,V,"(41.443985, 2.2378986)"
08113007_10_20200102,8113007,8,113,7,Manresa,Manresa,41.730293,1.8253003,238,traffic,urban,10,PM10,µg/m3,08113007_10_47,2020,1,2,02/01/2020,10,V,11,V,14,V,11,V,10,V,8,V,9,V,11,V,12,V,15,V,17,V,12,V,16,V,17,V,19,V,19,V,19,V,25,V,26,V,34,V,31,V,27,V,21,V,16,V,"(41.730293, 1.8253003)"
43162001_8_20200102,43162001,43,162,1,Vandellòs (Els Dedalts),Vandellòs i l'Hospitalet de l',41.00808,0.83110964,737,background,rural,8,NO2,µg/m3,43162001_8_8,2020,1,2,02/01/2020,6,V,4,V,3,V,3,V,3,V,3,V,3,V,3,V,3,V,3,V,3,V,3,V,3,V,3,V,3,V,3,V,3,V,4,V,5,V,4,V,4,V,4,V,3,V,4,V,"(41.00808, 0.83110964)"
17184001_8_20200102,17184001,17,184,1,Santa Pau,Santa Pau,42.14328,2.5102024,496,background,rural,8,NO2,µg/m3,17184001_8_8,2020,1,2,02/01/2020,1,V,1,V,1,V,1,V,1,V,1,V,1,V,1,V,1,V,1,V,1,V,1,V,1,V,1,V,3,V,1,V,1,V,1,V,1,V,1,V,1,V,1,V,2,V,2,V,"(42.14328, 2.5102024)"
08113007_14_20200102,8113007,8,113,7,Manresa,Manresa,41.730293,1.8253003,238,traffic,urban,14,O3,µg/m3,08113007_14_6,2020,1,2,02/01/2020,5,V,3,V,2,V,2,V,1,V,1,V,1,V,1,V,1,V,2,V,5,V,8,V,9,V,12,V,14,V,14,V,7,V,2,V,1,V,2,V,2,V,1,V,1,V,1,V,"(41.730293, 1.8253003)"
17184001_14_20200102,17184001,17,184,1,Santa Pau,Santa Pau,42.14328,2.5102024,496,background,rural,14,O3,µg/m3,17184001_14_6,2020,1,2,02/01/2020,7,V,7,V,7,V,7,V,11,V,12,V,5,V,6,V,3,V,13,V,22,V,20,V,16,V,12,V,22,V,23,V,15,V,13,V,8,V,6,V,5,V,4,V,4,V,4,V,"(42.14328, 2.5102024)"
08113007_8_20200102,8113007,8,113,7,Manresa,Manresa,41.730293,1.8253003,238,traffic,urban,8,NO2,µg/m3,08113007_8_8,2020,1,2,02/01/2020,13,V,13,V,13,V,13,V,12,V,11,V,13,V,15,V,16,V,18,V,17,V,13,V,17,V,21,V,22,V,25,V,34,V,45,V,46,V,38,V,31,V,33,V,31,V,24,V,"(41.730293, 1.8253003)"
17125001_14_20200102,17125001,17,125,1,Pardines,Pardines,42.31196,2.2130551,1226,background,rural,14,O3,µg/m3,17125001_14_6,2020,1,2,02/01/2020,65,V,68,V,69,V,68,V,68,V,68,V,66,V,68,V,65,V,63,V,62,V,66,V,72,V,67,V,60,V,54,V,48,V,41,V,40,V,57,V,60,V,69,V,68,V,68,V,"(42.31196, 2.2130551)"
08114006_10_20200102,8114006,8,114,6,Martorell,Martorell,41.475384,1.9212021,78,background,suburban,10,PM10,µg/m3,08114006_10_47,2020,1,2,02/01/2020,10,V,9,V,10,V,10,V,9,V,10,V,10,V,15,V,15,V,18,V,20,V,8,V,15,V,16,V,16,V,20,V,27,V,29,V,28,V,27,V,24,V,23,V,24,V,25,V,"(41.475384, 1.9212021)"
43148028_8_20200102,43148028,43,148,28,Tarragona (Parc de la Ciutat),Tarragona,41.1174,1.2417027,13,background,urban,8,NO2,µg/m3,43148028_8_8,2020,1,2,02/01/2020,20,V,14,V,9,V,10,V,10,V,11,V,15,V,25,V,28,V,28,V,23,V,25,V,26,V,55,V,66,V,47,V,34,V,43,V,52,V,56,V,59,V,46,V,40,V,30,V,"(41.1174, 1.2417027)"
17079003_8_20200102,17079003,17,79,3,Girona (Escola de Música),Girona,41.97638,2.8165,73,traffic,urban,8,NO2,µg/m3,17079003_8_8,2020,1,2,02/01/2020,18,V,16,V,10,V,9,V,8,V,10,V,13,V,18,V,26,V,21,V,19,V,20,V,25,V,23,V,24,V,26,V,40,V,57,V,59,V,60,V,42,V,41,V,29,V,26,V,"(41.97638, 2.8165)"
08114006_8_20200102,8114006,8,114,6,Martorell,Martorell,41.475384,1.9212021,78,background,suburban,8,NO2,µg/m3,08114006_8_8,2020,1,2,02/01/2020,23.1,V,20,V,18.6,V,16.9,V,16.2,V,16.5,V,16.4,V,17.7,V,24,V,26.6,V,26.1,V,22,V,23.8,V,24.8,V,27.4,V,29.1,V,40.9,V,49.1,V,46.3,V,41.9,V,38.7,V,32.6,V,34.1,V,28.2,V,"(41.475384, 1.9212021)"
17079003_10_20200102,17079003,17,79,3,Girona (Escola de Música),Girona,41.97638,2.8165,73,traffic,urban,10,PM10,µg/m3,17079003_10_47,2020,1,2,02/01/2020,24,V,23,V,17,V,16,V,14,V,14,V,17,V,19,V,25,V,29,V,25,V,24,V,23,V,17,V,16,V,17,V,22,V,27,V,36,V,44,V,40,V,47,V,38,V,36,V,"(41.97638, 2.8165)"
08121013_10_20200102,8121013,8,121,13,Mataró,Mataró,41.547176,2.4432983,40,background,urban,10,PM10,µg/m3,08121013_10_47,2020,1,2,02/01/2020,10,V,10,V,13,V,14,V,12,V,13,V,14,V,17,V,19,V,15,V,14,V,13,V,11,V,11,V,12,V,13,V,13,V,18,V,22,V,21,V,20,V,18,V,17,V,14,V,"(41.547176, 2.4432983)"
17013001_8_20200102,17013001,17,13,1,Begur,Begur,41.95867,3.2129009,200,background,rural,8,NO2,µg/m3,17013001_8_8,2020,1,2,02/01/2020,4,V,4,V,4,V,4,V,5,V,5,V,5,V,6,V,12,V,9,V,8,V,7,V,5,V,4,V,4,V,5,V,11,V,18,V,21,V,17,V,16,V,14,V,9,V,6,V,"(41.95867, 3.2129009)"
08121013_14_20200102,8121013,8,121,13,Mataró,Mataró,41.547176,2.4432983,40,background,urban,14,O3,µg/m3,08121013_14_6,2020,1,2,02/01/2020,43,V,34,V,30,V,24,V,20,V,11,V,5,V,1,V,8,V,21,V,28,V,38,V,50,V,50,V,46,V,47,V,40,V,15,V,11,V,10,V,15,V,20,V,26,V,36,V,"(41.547176, 2.4432983)"
43148028_14_20200102,43148028,43,148,28,Tarragona (Parc de la Ciutat),Tarragona,41.1174,1.2417027,13,background,urban,14,O3,µg/m3,43148028_14_6,2020,1,2,02/01/2020,,N,,N,,N,,N,,N,,N,,N,,N,,N,,N,,N,,N,,N,,N,,N,,N,,N,,N,,N,,N,,N,,N,,N,,N,"(41.1174, 1.2417027)"
17013001_14_20200102,17013001,17,13,1,Begur,Begur,41.95867,3.2129009,200,background,rural,14,O3,µg/m3,17013001_14_6,2020,1,2,02/01/2020,55,V,52,V,52,V,50,V,45,V,44,V,44,V,40,V,31,V,37,V,41,V,42,V,48,V,57,V,62,V,62,V,52,V,43,V,40,V,44,V,42,V,44,V,50,V,52,V,"(41.95867, 3.2129009)"
08121013_8_20200102,8121013,8,121,13,Mataró,Mataró,41.547176,2.4432983,40,background,urban,8,NO2,µg/m3,08121013_8_8,2020,1,2,02/01/2020,13,V,12,V,15,V,20,V,21,V,31,V,41,V,49,V,37,V,22,V,18,V,18,V,13,V,14,V,16,V,17,V,22,V,53,V,58,V,61,V,53,V,42,V,30,V,20,V,"(41.547176, 2.4432983)"
17013001_10_20200102,17013001,17,13,1,Begur,Begur,41.95867,3.2129009,200,background,rural,10,PM10,µg/m3,17013001_10_47,2020,1,2,02/01/2020,,N,,N,,N,,N,,N,,N,,N,,N,,N,,N,,N,,N,,N,,N,,N,,N,,N,,N,,N,,N,,N,,N,,N,,N,"(41.95867, 3.2129009)"
08124009_8_20200102,8124009,8,124,9,Mollet del Vallès,Mollet del Vallès,41.549183,2.2120984,90,traffic,suburban,8,NO2,µg/m3,08124009_8_8,2020,1,2,02/01/2020,32,V,27,V,22,V,19,V,22,V,27,V,31,V,36,V,41,V,40,V,43,V,56,V,56,V,34,V,19,V,21,V,31,V,57,V,81,V,73,V,68,V,63,V,61,V,50,V,"(41.549183, 2.2120984)"
08263001_8_20200102,8263001,8,263,1,Sant Vicenç dels Horts (Ribot),Sant Vicenç dels Horts,41.39219,2.0097985,38,background,suburban,8,NO2,µg/m3,08263001_8_8,2020,1,2,02/01/2020,26,V,24,V,21,V,20,V,19,V,19,V,20,V,23,V,28,V,28,V,30,V,31,V,32,V,35,V,40,V,44,V,28,V,37,V,57,V,53,V,50,V,45,V,37,V,30,V,"(41.39219, 2.0097985)"
08125002_10_20200102,8125002,8,125,2,Montcada i Reixac,Montcada i Reixac,41.48197,2.1882975,34,traffic,suburban,10,PM10,µg/m3,08125002_10_47,2020,1,2,02/01/2020,15,V,11,V,12,V,11,V,15,V,22,V,22,V,24,V,22,V,23,V,29,V,33,V,30,V,20,V,19,V,17,V,19,V,27,V,27,V,36,V,31,V,26,V,23,V,23,V,"(41.48197, 2.1882975)"
08019043_14_20200102,8019043,8,19,43,Barcelona (Eixample),Barcelona,41.385315,2.1537998,26,traffic,urban,14,O3,µg/m3,08019043_14_6,2020,1,2,02/01/2020,4,V,5,V,5,V,4,V,1,V,1,V,2,V,1,V,2,V,4,V,9,V,22,V,31,V,33,V,33,V,34,V,37,V,22,V,2,V,2,V,2,V,5,V,9,V,1,V,"(41.385315, 2.1537998)"
08307012_8_20200102,8307012,8,307,12,Vilanova i la Geltrú,Vilanova i la Geltrú,41.218987,1.7211995,12,traffic,urban,8,NO2,µg/m3,08307012_8_8,2020,1,2,02/01/2020,20,V,20,V,18,V,13,V,14,V,16,V,25,V,30,V,33,V,27,V,27,V,24,V,20,V,14,V,13,V,11,V,14,V,25,V,33,V,42,V,40,V,35,V,28,V,30,V,"(41.218987, 1.7211995)"
08307012_14_20200102,8307012,8,307,12,Vilanova i la Geltrú,Vilanova i la Geltrú,41.218987,1.7211995,12,traffic,urban,14,O3,µg/m3,08307012_14_6,2020,1,2,02/01/2020,8,V,8,V,5,V,8,V,7,V,6,V,1,V,1,V,2,V,5,V,7,V,14,V,22,V,36,V,35,V,43,V,40,V,31,V,22,V,14,V,12,V,13,V,15,V,16,V,"(41.218987, 1.7211995)"
08125002_14_20200102,8125002,8,125,2,Montcada i Reixac,Montcada i Reixac,41.48197,2.1882975,34,traffic,suburban,14,O3,µg/m3,08125002_14_6,2020,1,2,02/01/2020,1,V,2,V,1,V,1,V,1,V,1,V,1,V,1,V,1,V,1,V,2,V,3,V,10,V,23,V,28,V,26,V,11,V,1,V,1,V,1,V,1,V,1,V,1,V,1,V,"(41.48197, 2.1882975)"
08305006_8_20200102,8305006,8,305,6,Vilafranca del Penedès,Vilafranca del Penedès,41.346813,1.6865987,192,background,suburban,8,NO2,µg/m3,08305006_8_8,2020,1,2,02/01/2020,20,V,15,V,13,V,12,V,10,V,11,V,14,V,18,V,16,V,15,V,14,V,15,V,16,V,23,V,15,V,11,V,16,V,25,V,32,V,36,V,43,V,40,V,39,V,33,V,"(41.346813, 1.6865987)"
08125002_8_20200102,8125002,8,125,2,Montcada i Reixac,Montcada i Reixac,41.48197,2.1882975,34,traffic,suburban,8,NO2,µg/m3,08125002_8_8,2020,1,2,02/01/2020,26,V,21,V,23,V,17,V,17,V,23,V,25,V,28,V,30,V,33,V,41,V,41,V,24,V,20,V,21,V,26,V,50,V,63,V,44,V,49,V,49,V,41,V,49,V,37,V,"(41.48197, 2.1882975)"
08305006_14_20200102,8305006,8,305,6,Vilafranca del Penedès,Vilafranca del Penedès,41.346813,1.6865987,192,background,suburban,14,O3,µg/m3,08305006_14_6,2020,1,2,02/01/2020,6,V,8,V,8,V,8,V,9,V,8,V,7,V,5,V,7,V,9,V,13,V,14,V,16,V,23,V,49,V,60,V,55,V,38,V,20,V,12,V,3,V,2,V,2,V,1,V,"(41.346813, 1.6865987)"
08125013_10_20200102,8125013,8,125,13,Montcada i Reixac (Can Sant Joan),Montcada i Reixac,41.469826,2.1758358,29,industrial,suburban,10,PM10,µg/m3,08125013_10_47,2020,1,2,02/01/2020,13,V,13,V,13,V,13,V,18,V,21,V,24,V,22,V,24,V,25,V,30,V,36,V,20,V,15,V,15,V,18,V,19,V,37,V,34,V,23,V,25,V,27,V,23,V,18,V,"(41.469826, 2.1758358)"
08305006_10_20200102,8305006,8,305,6,Vilafranca del Penedès,Vilafranca del Penedès,41.346813,1.6865987,192,background,suburban,10,PM10,µg/m3,08305006_10_47,2020,1,2,02/01/2020,12,V,10,V,11,V,13,V,12,V,9,V,10,V,10,V,18,V,36,V,26,V,32,V,27,V,22,V,14,V,12,V,16,V,16,V,16,V,18,V,23,V,28,V,20,V,21,V,"(41.346813, 1.6865987)"
08137001_14_20200102,8137001,8,137,1,Montseny (La Castanya),Montseny,41.77928,2.358002,693,background,rural,14,O3,µg/m3,08137001_14_6,2020,1,2,02/01/2020,62,V,62,V,56,V,59,V,56,V,54,V,48,V,40,V,38,V,46,V,46,V,42,V,43,V,42,V,47,V,27,V,38,V,36,V,37,V,39,V,41,V,47,V,51,V,55,V,"(41.77928, 2.358002)"
43148022_8_20200102,43148022,43,148,22,Tarragona (Universitat Laboral),Tarragona,41.103706,1.2007992,5,industrial,suburban,8,NO2,µg/m3,43148022_8_8,2020,1,2,02/01/2020,17,V,10,V,11,V,15,V,15,V,11,V,19,V,31,V,27,V,29,V,31,V,43,V,29,V,36,V,18,V,16,V,10,V,6,V,7,V,8,V,41,V,38,V,35,V,29,V,"(41.103706, 1.2007992)"
08301004_8_20200102,8301004,8,301,4,Viladecans - Atrium,Viladecans,41.31335,2.0136087,14,background,suburban,8,NO2,µg/m3,08301004_8_8,2020,1,2,02/01/2020,20,V,20,V,15,V,13,V,14,V,17,V,19,V,24,V,32,V,34,V,32,V,32,V,26,V,10,V,7,V,8,V,10,V,23,V,38,V,38,V,27,V,26,V,33,V,42,V,"(41.31335, 2.0136087)"
08137001_8_20200102,8137001,8,137,1,Montseny (La Castanya),Montseny,41.77928,2.358002,693,background,rural,8,NO2,µg/m3,08137001_8_8,2020,1,2,02/01/2020,1,V,1,V,1,V,1,V,1,V,1,V,2,V,3,V,3,V,2,V,2,V,2,V,3,V,4,V,6,V,23,V,14,V,8,V,6,V,6,V,5,V,4,V,3,V,2,V,"(41.77928, 2.358002)"
08301004_14_20200102,8301004,8,301,4,Viladecans - Atrium,Viladecans,41.31335,2.0136087,14,background,suburban,14,O3,µg/m3,08301004_14_6,2020,1,2,02/01/2020,13,V,8,V,11,V,10,V,7,V,2,V,2,V,2,V,2,V,3,V,6,V,8,V,32,V,65,V,67,V,65,V,62,V,42,V,19,V,21,V,32,V,29,V,20,V,5,V,"(41.31335, 2.0136087)"
08157003_8_20200102,8157003,8,157,3,Pallejà (Roca de Vilana),Pallejà,41.41528,1.9905012,82,industrial,suburban,8,NO2,µg/m3,08157003_8_8,2020,1,2,02/01/2020,18,V,16,V,13,V,14,V,11,V,10,V,11,V,16,V,16,V,16,V,17,V,20,V,23,V,22,V,26,V,22,V,19,V,10,V,17,V,35,V,33,V,31,V,30,V,30,V,"(41.41528, 1.9905012)"
08298008_14_20200102,8298008,8,298,8,Vic,Vic,41.93501,2.2400014,498,background,suburban,14,O3,µg/m3,08298008_14_6,2020,1,2,02/01/2020,4,V,2,V,6,V,1,V,1,V,1,V,1,V,1,V,1,V,2,V,2,V,4,V,7,V,11,V,11,V,11,V,7,V,26,V,23,V,19,V,7,V,3,V,1,V,1,V,"(41.93501, 2.2400014)"
08169008_8_20200102,8169008,8,169,8,El Prat de Llobregat (Jardins de la Pau),"Prat de Llobregat, el",41.321487,2.0977015,5,background,suburban,8,NO2,µg/m3,08169008_8_8,2020,1,2,02/01/2020,25,V,22,V,19,V,18,V,17,V,17,V,18,V,22,V,21,V,21,V,21,V,23,V,29,V,37,V,15,V,15,V,22,V,39,V,54,V,66,V,59,V,47,V,39,V,33,V,"(41.321487, 2.0977015)"
08019043_8_20200102,8019043,8,19,43,Barcelona (Eixample),Barcelona,41.385315,2.1537998,26,traffic,urban,8,NO2,µg/m3,08019043_8_8,2020,1,2,02/01/2020,40,V,32,V,34,V,32,V,34,V,34,V,35,V,42,V,52,V,47,V,41,V,35,V,29,V,27,V,30,V,32,V,39,V,50,V,73,V,72,V,67,V,56,V,47,V,60,V,"(41.385315, 2.1537998)"
08298008_10_20200102,8298008,8,298,8,Vic,Vic,41.93501,2.2400014,498,background,suburban,10,PM10,µg/m3,08298008_10_47,2020,1,2,02/01/2020,10,V,16,V,12,V,14,V,18,V,21,V,22,V,19,V,21,V,15,V,28,V,24,V,47,V,48,V,35,V,33,V,38,V,21,V,10,V,12,V,13,V,14,V,17,V,18,V,"(41.93501, 2.2400014)"
08169009_14_20200102,8169009,8,169,9,El Prat de Llobregat (Sagnier),"Prat de Llobregat, el",41.321774,2.0821,7,background,suburban,14,O3,µg/m3,08169009_14_6,2020,1,2,02/01/2020,2,V,2,V,2,V,3,V,3,V,2,V,2,V,2,V,2,V,3,V,5,V,9,V,11,V,23,V,62,V,64,V,53,V,30,V,19,V,3,V,2,V,2,V,2,V,2,V,"(41.321774, 2.0821)"
08283004_8_20200102,8283004,8,283,4,Tona (Zona Esportiva),Tona,41.84666,2.2175014,620,background,rural,8,NO2,µg/m3,08283004_8_8,2020,1,2,02/01/2020,8,V,6,V,8,V,7,V,7,V,8,V,11,V,12,V,16,V,17,V,23,V,19,V,11,V,21,V,23,V,27,V,16,V,17,V,19,V,11,V,15,V,20,V,17,V,13,V,"(41.84666, 2.2175014)"
08169009_8_20200102,8169009,8,169,9,El Prat de Llobregat (Sagnier),"Prat de Llobregat, el",41.321774,2.0821,7,background,suburban,8,NO2,µg/m3,08169009_8_8,2020,1,2,02/01/2020,30,V,27,V,24,V,24,V,22,V,21,V,22,V,24,V,25,V,25,V,25,V,25,V,32,V,32,V,10,V,10,V,18,V,36,V,44,V,64,V,50,V,43,V,39,V,35,V,"(41.321774, 2.0821)"
08019043_10_20200102,8019043,8,19,43,Barcelona (Eixample),Barcelona,41.385315,2.1537998,26,traffic,urban,10,PM10,µg/m3,08019043_10_47,2020,1,2,02/01/2020,20,V,15,V,15,V,13,V,16,V,17,V,15,V,18,V,20,V,22,V,20,V,24,V,19,V,19,V,19,V,20,V,23,V,28,V,34,V,31,V,25,V,22,V,19,V,19,V,"(41.385315, 2.1537998)"
08283004_14_20200102,8283004,8,283,4,Tona (Zona Esportiva),Tona,41.84666,2.2175014,620,background,rural,14,O3,µg/m3,08283004_14_6,2020,1,2,02/01/2020,8,V,12,V,8,V,12,V,10,V,9,V,4,V,3,V,2,V,5,V,6,V,16,V,24,V,29,V,24,V,22,V,35,V,21,V,16,V,24,V,16,V,11,V,11,V,11,V,"(41.84666, 2.2175014)"
08184006_10_20200102,8184006,8,184,6,Rubí,Rubí,41.492115,2.0424972,171,background,suburban,10,PM10,µg/m3,08184006_10_47,2020,1,2,02/01/2020,13,V,15,V,12,V,12,V,12,V,12,V,17,V,20,V,29,V,33,V,24,V,11,V,13,V,13,V,13,V,14,V,15,V,16,V,25,V,41,V,46,V,51,V,42,V,29,V,"(41.492115, 2.0424972)"
08279011_8_20200102,8279011,8,279,11,Terrassa,Terrassa,41.556114,2.0073977,109,traffic,urban,8,NO2,µg/m3,08279011_8_8,2020,1,2,02/01/2020,24,V,19,V,17,V,17,V,19,V,21,V,23,V,27,V,28,V,25,V,16,V,16,V,23,V,23,V,24,V,30,V,36,V,67,V,72,V,72,V,55,V,44,V,33,V,29,V,"(41.556114, 2.0073977)"
08184006_14_20200102,8184006,8,184,6,Rubí,Rubí,41.492115,2.0424972,171,background,suburban,14,O3,µg/m3,08184006_14_6,2020,1,2,02/01/2020,6,V,6,V,5,V,5,V,4,V,4,V,5,V,5,V,6,V,6,V,7,V,13,V,21,V,37,V,42,V,43,V,36,V,21,V,8,V,10,V,12,V,9,V,9,V,8,V,"(41.492115, 2.0424972)"
43148003_8_20200102,43148003,43,148,3,Tarragona (Bonavista),Tarragona,41.11591,1.1919986,39,industrial,suburban,8,NO2,µg/m3,43148003_8_8,2020,1,2,02/01/2020,15,V,16,V,14,V,14,V,10,V,10,V,16,V,26,V,32,V,29,V,27,V,25,V,20,V,36,V,30,V,22,V,21,V,19,V,17,V,35,V,53,V,36,V,30,V,25,V,"(41.11591, 1.1919986)"
08279011_14_20200102,8279011,8,279,11,Terrassa,Terrassa,41.556114,2.0073977,109,traffic,urban,14,O3,µg/m3,08279011_14_6,2020,1,2,02/01/2020,6,V,7,V,6,V,5,V,3,V,2,V,2,V,2,V,2,V,8,V,13,V,14,V,20,V,26,V,26,V,23,V,23,V,5,V,4,V,3,V,4,V,5,V,8,V,8,V,"(41.556114, 2.0073977)"
08184006_8_20200102,8184006,8,184,6,Rubí,Rubí,41.492115,2.0424972,171,background,suburban,8,NO2,µg/m3,08184006_8_8,2020,1,2,02/01/2020,23,V,19,V,14,V,14,V,12,V,12,V,21,V,25,V,34,V,33,V,15,V,14,V,12,V,9,V,10,V,12,V,17,V,28,V,46,V,52,V,53,V,39,V,38,V,34,V,"(41.492115, 2.0424972)"
08279011_10_20200102,8279011,8,279,11,Terrassa,Terrassa,41.556114,2.0073977,109,traffic,urban,10,PM10,µg/m3,08279011_10_47,2020,1,2,02/01/2020,14,V,11,V,13,V,12,V,11,V,12,V,15,V,17,V,17,V,19,V,17,V,17,V,19,V,18,V,18,V,21,V,22,V,33,V,47,V,43,V,35,V,31,V,20,V,18,V,"(41.556114, 2.0073977)"
08187012_10_20200102,8187012,8,187,12,Sabadell,Sabadell,41.561214,2.1011107,210,traffic,urban,10,PM10,µg/m3,08187012_10_47,2020,1,2,02/01/2020,24,V,18,V,17,V,15,V,14,V,16,V,18,V,25,V,34,V,45,V,66,V,80,V,23,V,17,V,17,V,22,V,26,V,33,V,33,V,40,V,35,V,34,V,32,V,25,V,"(41.561214, 2.1011107)"
08270005_8_20200102,8270005,8,270,5,Sitges (Vallcarca),Sitges,41.240814,1.856664,46,industrial,rural,8,NO2,µg/m3,08270005_8_99,2020,1,2,02/01/2020,6,V,4,V,4,V,4,V,4,V,3,V,5,V,14,V,14,V,15,V,10,V,8,V,5,V,4,V,5,V,8,V,11,V,9,V,10,V,15,V,10,V,7,V,6,V,5,V,"(41.240814, 1.856664)"
08187012_14_20200102,8187012,8,187,12,Sabadell,Sabadell,41.561214,2.1011107,210,traffic,urban,14,O3,µg/m3,08187012_14_6,2020,1,2,02/01/2020,4,V,3,V,3,V,2,V,2,V,1,V,1,V,1,V,1,V,1,V,3,V,6,V,23,V,32,V,33,V,29,V,24,V,8,V,4,V,2,V,3,V,5,V,5,V,9,V,"(41.561214, 2.1011107)"
08019044_10_20200102,8019044,8,19,44,Barcelona (Gràcia - Sant Gervasi),Barcelona,41.398724,2.1533988,57,traffic,urban,10,PM10,µg/m3,08019044_10_47,2020,1,2,02/01/2020,17,V,15,V,14,V,12,V,13,V,14,V,16,V,19,V,22,V,24,V,19,V,20,V,20,V,20,V,20,V,22,V,23,V,24,V,26,V,26,V,21,V,19,V,17,V,15,V,"(41.398724, 2.1533988)"
08263007_8_20200102,8263007,8,263,7,Sant Vicenç dels Horts,Sant Vicenç dels Horts,41.400845,1.9997202,65,industrial,suburban,8,NO2,µg/m3,08263007_8_8,2020,1,2,02/01/2020,29,V,26,V,23,V,21,V,20,V,19,V,20,V,26,V,31,V,26,V,29,V,31,V,31,V,33,V,36,V,31,V,22,V,29,V,56,V,58,V,51,V,49,V,45,V,39,V,"(41.400845, 1.9997202)"
08187012_8_20200102,8187012,8,187,12,Sabadell,Sabadell,41.561214,2.1011107,210,traffic,urban,8,NO2,µg/m3,08187012_8_8,2020,1,2,02/01/2020,20,V,16,V,12,V,11,V,12,V,19,V,22,V,40,V,40,V,38,V,40,V,48,V,26,V,24,V,25,V,32,V,42,V,65,V,73,V,75,V,62,V,59,V,51,V,31,V,"(41.561214, 2.1011107)"
08022006_10_20200103,8022006,8,22,6,Berga,Berga,42.0979,1.8482014,661,background,suburban,10,PM10,µg/m3,08022006_10_47,2020,1,3,03/01/2020,8,V,5,V,3,V,3,V,4,V,4,V,4,V,8,V,15,V,18,V,18,V,17,V,22,V,23,V,27,V,34,V,31,V,29,V,33,V,42,V,37,V,32,V,20,V,7,V,"(42.0979, 1.8482014)"
17079003_8_20200103,17079003,17,79,3,Girona (Escola de Música),Girona,41.97638,2.8165,73,traffic,urban,8,NO2,µg/m3,17079003_8_8,2020,1,3,03/01/2020,17,V,14,V,12,V,11,V,11,V,12,V,13,V,16,V,23,V,35,V,34,V,37,V,44,V,34,V,30,V,35,V,46,V,69,V,70,V,52,V,55,V,56,V,42,V,31,V,"(41.97638, 2.8165)"
08283004_8_20200103,8283004,8,283,4,Tona (Zona Esportiva),Tona,41.84666,2.2175014,620,background,rural,8,NO2,µg/m3,08283004_8_8,2020,1,3,03/01/2020,11,V,11,V,11,V,8,V,8,V,8,V,11,V,13,V,12,V,16,V,19,V,22,V,22,V,18,V,21,V,30,V,27,V,17,V,15,V,15,V,16,V,16,V,18,V,14,V,"(41.84666, 2.2175014)"
43013002_8_20200103,43013002,43,13,2,L'Ametlla de Mar,"Ametlla de Mar, l'",40.90248,0.8097212,34,background,rural,8,NO2,µg/m3,43013002_8_8,2020,1,3,03/01/2020,3,V,3,V,4,V,4,V,3,V,3,V,3,V,2,V,4,V,3,V,3,V,2,V,2,V,3,V,3,V,4,V,6,V,5,V,7,V,7,V,8,V,6,V,9,V,10,V,"(40.90248, 0.8097212)"
08187012_10_20200103,8187012,8,187,12,Sabadell,Sabadell,41.561214,2.1011107,210,traffic,urban,10,PM10,µg/m3,08187012_10_47,2020,1,3,03/01/2020,24,V,17,V,13,V,12,V,15,V,12,V,13,V,24,V,29,V,37,V,33,V,32,V,26,V,24,V,21,V,23,V,29,V,31,V,29,V,30,V,33,V,31,V,49,V,38,V,"(41.561214, 2.1011107)"
08114006_8_20200103,8114006,8,114,6,Martorell,Martorell,41.475384,1.9212021,78,background,suburban,8,NO2,µg/m3,08114006_8_8,2020,1,3,03/01/2020,28.3,V,27.3,V,24.7,V,21.8,V,24,V,24.9,V,26.4,V,29,V,30.7,V,28.4,V,23.4,V,21.9,V,20,V,21.3,V,24.9,V,24.1,V,25.4,V,26.9,V,30.5,V,34.4,V,34.4,V,35.6,V,31.7,V,30.8,V,"(41.475384, 1.9212021)"
08019058_8_20200103,8019058,8,19,58,Barcelona (Observatori Fabra),Barcelona,41.41843,2.1238973,415,background,suburban,8,NO2,µg/m3,08019058_8_8,2020,1,3,03/01/2020,12,V,11,V,13,V,9,V,6,V,6,V,5,V,4,V,5,V,4,V,4,V,5,V,5,V,6,V,6,V,12,V,11,V,12,V,20,V,17,V,7,V,4,V,4,V,6,V,"(41.41843, 2.1238973)"
43014001_10_20200103,43014001,43,14,1,Amposta,Amposta,40.706703,0.5817011,8,background,suburban,10,PM10,µg/m3,43014001_10_47,2020,1,3,03/01/2020,11,V,12,V,16,V,14,V,10,V,9,V,5,V,4,V,6,V,7,V,,N,,N,13,V,6,V,10,V,15,V,11,V,13,V,20,V,18,V,20,V,25,V,26,V,28,V,"(40.706703, 0.5817011)"
17079003_10_20200103,17079003,17,79,3,Girona (Escola de Música),Girona,41.97638,2.8165,73,traffic,urban,10,PM10,µg/m3,17079003_10_47,2020,1,3,03/01/2020,25,V,21,V,20,V,16,V,18,V,21,V,18,V,19,V,24,V,37,V,42,V,35,V,36,V,33,V,24,V,24,V,26,V,41,V,63,V,60,V,60,V,61,V,64,V,45,V,"(41.97638, 2.8165)"
08019044_14_20200103,8019044,8,19,44,Barcelona (Gràcia - Sant Gervasi),Barcelona,41.398724,2.1533988,57,traffic,urban,14,O3,µg/m3,08019044_14_6,2020,1,3,03/01/2020,25,V,34,V,45,V,38,V,39,V,42,V,38,V,29,V,22,V,16,V,15,V,16,V,28,V,32,V,24,V,16,V,8,V,4,V,3,V,3,V,3,V,4,V,6,V,5,V,"(41.398724, 2.1533988)"
08019058_14_20200103,8019058,8,19,58,Barcelona (Observatori Fabra),Barcelona,41.41843,2.1238973,415,background,suburban,14,O3,µg/m3,08019058_14_6,2020,1,3,03/01/2020,56,V,57,V,57,V,58,V,59,V,62,V,64,V,64,V,52,V,60,V,61,V,60,V,62,V,59,V,65,V,59,V,55,V,56,V,40,V,47,V,71,V,80,V,79,V,70,V,"(41.41843, 2.1238973)"
08202001_8_20200103,8202001,8,202,1,Sant Celoni,Sant Celoni,41.6891,2.495701,145,background,suburban,8,NO2,µg/m3,08202001_8_8,2020,1,3,03/01/2020,45,V,35,V,33,V,32,V,28,V,26,V,26,V,37,V,35,V,36,V,44,V,29,V,43,V,50,V,51,V,38,V,33,V,65,V,65,V,53,V,49,V,43,V,40,V,35,V,"(41.6891, 2.495701)"
08121013_10_20200103,8121013,8,121,13,Mataró,Mataró,41.547176,2.4432983,40,background,urban,10,PM10,µg/m3,08121013_10_47,2020,1,3,03/01/2020,12,V,10,V,10,V,9,V,9,V,9,V,9,V,10,V,11,V,15,V,18,V,22,V,19,V,17,V,17,V,20,V,24,V,29,V,32,V,32,V,29,V,25,V,21,V,17,V,"(41.547176, 2.4432983)"
43148028_14_20200103,43148028,43,148,28,Tarragona (Parc de la Ciutat),Tarragona,41.1174,1.2417027,13,background,urban,14,O3,µg/m3,43148028_14_6,2020,1,3,03/01/2020,,N,,N,,N,,N,,N,,N,,N,,N,,N,,N,,N,,N,,N,,N,,N,,N,,N,,N,,N,,N,,N,,N,,N,,N,"(41.1174, 1.2417027)"
43014001_14_20200103,43014001,43,14,1,Amposta,Amposta,40.706703,0.5817011,8,background,suburban,14,O3,µg/m3,43014001_14_6,2020,1,3,03/01/2020,17,V,17,V,16,V,16,V,16,V,17,V,17,V,15,V,14,V,18,V,20,V,20,V,20,V,24,V,31,V,30,V,34,V,22,V,9,V,8,V,5,V,3,V,2,V,2,V,"(40.706703, 0.5817011)"
17013001_8_20200103,17013001,17,13,1,Begur,Begur,41.95867,3.2129009,200,background,rural,8,NO2,µg/m3,17013001_8_8,2020,1,3,03/01/2020,5,V,5,V,5,V,5,V,8,V,12,V,10,V,8,V,11,V,8,V,8,V,10,V,8,V,5,V,5,V,7,V,12,V,16,V,11,V,10,V,8,V,9,V,8,V,10,V,"(41.95867, 3.2129009)"
08263001_10_20200103,8263001,8,263,1,Sant Vicenç dels Horts (Ribot),Sant Vicenç dels Horts,41.39219,2.0097985,38,background,suburban,10,PM10,µg/m3,08263001_10_47,2020,1,3,03/01/2020,28,V,26,V,23,V,18,V,17,V,16,V,17,V,18,V,20,V,22,V,22,V,24,V,20,V,19,V,17,V,15,V,17,V,18,V,24,V,26,V,29,V,28,V,24,V,19,V,"(41.39219, 2.0097985)"
08015021_8_20200103,8015021,8,15,21,Badalona,Badalona,41.443985,2.2378986,7,background,urban,8,NO2,µg/m3,08015021_8_8,2020,1,3,03/01/2020,27,V,21,V,19,V,16,V,17,V,19,V,24,V,30,V,30,V,34,V,35,V,29,V,28,V,24,V,27,V,33,V,36,V,41,V,45,V,42,V,40,V,43,V,42,V,37,V,"(41.443985, 2.2378986)"
08019058_10_20200103,8019058,8,19,58,Barcelona (Observatori Fabra),Barcelona,41.41843,2.1238973,415,background,suburban,10,PM10,µg/m3,08019058_10_47,2020,1,3,03/01/2020,11,V,10,V,10,V,11,V,13,V,10,V,10,V,10,V,3,V,13,V,16,V,13,V,15,V,12,V,2,V,9,V,8,V,19,V,22,V,21,V,6,V,4,V,7,V,11,V,"(41.41843, 2.1238973)"
08169009_8_20200103,8169009,8,169,9,El Prat de Llobregat (Sagnier),"Prat de Llobregat, el",41.321774,2.0821,7,background,suburban,8,NO2,µg/m3,08169009_8_8,2020,1,3,03/01/2020,33,V,30,V,28,V,27,V,28,V,30,V,33,V,36,V,34,V,28,V,26,V,23,V,23,V,23,V,26,V,27,V,31,V,33,V,36,V,37,V,36,V,34,V,33,V,32,V,"(41.321774, 2.0821)"
08121013_14_20200103,8121013,8,121,13,Mataró,Mataró,41.547176,2.4432983,40,background,urban,14,O3,µg/m3,08121013_14_6,2020,1,3,03/01/2020,44,V,51,V,53,V,55,V,57,V,50,V,45,V,26,V,14,V,11,V,17,V,16,V,19,V,25,V,25,V,13,V,12,V,10,V,7,V,3,V,3,V,3,V,8,V,18,V,"(41.547176, 2.4432983)"
08270005_8_20200103,8270005,8,270,5,Sitges (Vallcarca),Sitges,41.240814,1.856664,46,industrial,rural,8,NO2,µg/m3,08270005_8_99,2020,1,3,03/01/2020,6,V,3,V,2,V,2,V,2,V,3,V,9,V,15,V,8,V,9,V,6,V,5,V,7,V,6,V,6,V,10,V,12,V,13,V,17,V,22,V,27,V,24,V,18,V,18,V,"(41.240814, 1.856664)"
17013001_14_20200103,17013001,17,13,1,Begur,Begur,41.95867,3.2129009,200,background,rural,14,O3,µg/m3,17013001_14_6,2020,1,3,03/01/2020,50,V,50,V,53,V,51,V,40,V,24,V,23,V,25,V,24,V,26,V,25,V,27,V,33,V,40,V,41,V,40,V,45,V,50,V,57,V,57,V,48,V,43,V,43,V,42,V,"(41.95867, 3.2129009)"
08283004_14_20200103,8283004,8,283,4,Tona (Zona Esportiva),Tona,41.84666,2.2175014,620,background,rural,14,O3,µg/m3,08283004_14_6,2020,1,3,03/01/2020,12,V,10,V,9,V,9,V,9,V,10,V,6,V,5,V,5,V,8,V,11,V,13,V,18,V,25,V,27,V,18,V,9,V,7,V,8,V,8,V,10,V,8,V,8,V,7,V,"(41.84666, 2.2175014)"
43014001_8_20200103,43014001,43,14,1,Amposta,Amposta,40.706703,0.5817011,8,background,suburban,8,NO2,µg/m3,43014001_8_8,2020,1,3,03/01/2020,6,V,6,V,6,V,6,V,6,V,6,V,6,V,8,V,10,V,9,V,10,V,9,V,9,V,9,V,13,V,19,V,14,V,23,V,33,V,30,V,33,V,34,V,27,V,26,V,"(40.706703, 0.5817011)"
08019054_8_20200103,8019054,8,19,54,Barcelona (Parc Vall Hebron),Barcelona,41.42611,2.1480017,136,background,urban,8,NO2,µg/m3,08019054_8_8,2020,1,3,03/01/2020,,N,,N,,N,,N,,N,,N,,N,,N,,N,,N,,N,,N,,N,,N,,N,,N,,N,,N,,N,,N,,N,,N,,N,,N,"(41.42611, 2.1480017)"
08019057_8_20200103,8019057,8,19,57,Barcelona (Palau Reial),Barcelona,41.38749,2.1151996,81,background,urban,8,NO2,µg/m3,08019057_8_8,2020,1,3,03/01/2020,17,V,15,V,13,V,15,V,14,V,13,V,17,V,23,V,43,V,42,V,51,V,39,V,38,V,15,V,16,V,15,V,22,V,27,V,39,V,45,V,55,V,54,V,54,V,48,V,"(41.38749, 2.1151996)"
08194008_10_20200103,8194008,8,194,8,Sant Adrià de Besòs,Sant Adrià de Besòs,41.425594,2.2221997,7,industrial,urban,10,PM10,µg/m3,08194008_10_47,2020,1,3,03/01/2020,22,V,19,V,16,V,14,V,12,V,11,V,11,V,11,V,13,V,16,V,22,V,23,V,17,V,17,V,16,V,17,V,18,V,22,V,24,V,24,V,25,V,21,V,20,V,18,V,"(41.425594, 2.2221997)"
08121013_8_20200103,8121013,8,121,13,Mataró,Mataró,41.547176,2.4432983,40,background,urban,8,NO2,µg/m3,08121013_8_8,2020,1,3,03/01/2020,13,V,9,V,8,V,7,V,6,V,10,V,14,V,30,V,36,V,41,V,35,V,31,V,29,V,27,V,33,V,41,V,48,V,55,V,61,V,67,V,61,V,52,V,47,V,38,V,"(41.547176, 2.4432983)"
43044003_14_20200103,43044003,43,44,3,La Sénia,"Sénia, la",40.64299,0.28840002,428,background,rural,14,O3,µg/m3,43044003_14_6,2020,1,3,03/01/2020,30,V,29,V,34,V,36,V,32,V,35,V,37,V,37,V,44,V,41,V,60,V,53,V,34,V,38,V,44,V,50,V,46,V,39,V,33,V,47,V,44,V,44,V,45,V,40,V,"(40.64299, 0.28840002)"
17013001_10_20200103,17013001,17,13,1,Begur,Begur,41.95867,3.2129009,200,background,rural,10,PM10,µg/m3,17013001_10_47,2020,1,3,03/01/2020,,N,,N,,N,,N,,N,,N,,N,,N,,N,,N,,N,,N,,N,,N,,N,,N,,N,,N,,N,,N,,N,,N,,N,,N,"(41.95867, 3.2129009)"
08251003_8_20200103,8251003,8,251,3,Sta. Margarida i els Monjos (La Ràpita),Santa Margarida i els Monjos,41.308426,1.6472995,155,industrial,rural,8,NO2,µg/m3,08251003_8_8,2020,1,3,03/01/2020,30,V,30,V,32,V,30,V,30,V,29,V,30,V,31,V,31,V,28,V,25,V,19,V,13,V,14,V,14,V,16,V,26,V,34,V,30,V,28,V,31,V,31,V,28,V,20,V,"(41.308426, 1.6472995)"
43047001_14_20200103,43047001,43,47,1,Constantí,Constantí,41.15493,1.2177014,56,industrial,suburban,14,O3,µg/m3,43047001_14_6,2020,1,3,03/01/2020,3,V,5,V,10,V,12,V,11,V,10,V,8,V,5,V,5,V,10,V,15,V,17,V,23,V,24,V,21,V,16,V,8,V,5,V,6,V,11,V,13,V,16,V,10,V,9,V,"(41.15493, 1.2177014)"
17001002_14_20200103,17001002,17,1,2,Agullana,Agullana,42.392002,2.8420997,214,background,rural,14,O3,µg/m3,17001002_14_6,2020,1,3,03/01/2020,26,V,26,V,23,V,20,V,26,V,30,V,31,V,41,V,39,V,33,V,29,V,43,V,54,V,56,V,56,V,53,V,56,V,52,V,52,V,51,V,53,V,62,V,61,V,60,V,"(42.392002, 2.8420997)"
08019057_14_20200103,8019057,8,19,57,Barcelona (Palau Reial),Barcelona,41.38749,2.1151996,81,background,urban,14,O3,µg/m3,08019057_14_6,2020,1,3,03/01/2020,48,V,54,V,58,V,52,V,54,V,56,V,53,V,41,V,26,V,13,V,18,V,19,V,19,V,48,V,36,V,39,V,28,V,20,V,9,V,4,V,2,V,2,V,2,V,3,V,"(41.38749, 2.1151996)"
08252006_8_20200103,8252006,8,252,6,Barberà del Vallès,Barberà del Vallès,41.512684,2.1253984,131,background,urban,8,NO2,µg/m3,08252006_8_8,2020,1,3,03/01/2020,34,V,26,V,22,V,21,V,19,V,19,V,24,V,33,V,31,V,33,V,43,V,38,V,17,V,17,V,16,V,23,V,25,V,32,V,33,V,34,V,34,V,36,V,35,V,32,V,"(41.512684, 2.1253984)"
08124009_8_20200103,8124009,8,124,9,Mollet del Vallès,Mollet del Vallès,41.549183,2.2120984,90,traffic,suburban,8,NO2,µg/m3,08124009_8_8,2020,1,3,03/01/2020,46,V,36,V,33,V,32,V,29,V,29,V,39,V,53,V,53,V,55,V,68,V,49,V,29,V,30,V,30,V,34,V,38,V,43,V,42,V,43,V,42,V,44,V,46,V,41,V,"(41.549183, 2.2120984)"
